,station_id,name,rental_methods,lat,eightd_station_services,has_kiosk,short_name,external_id,capacity,region_id,electric_bike_surcharge_waiver,legacy_id,lon,station_type,eightd_has_key_dispenser,rental_uris.ios,rental_uris.android,timestamp
0,1,Eads St & 15th St S,"['KEY', 'CREDITCARD']",38.858971,[],True,31000,082469cc-1f3f-11e7-bf6b-3863bb334450,15,41,False,1,-77.05323,classic,False,https://dc.lft.to/lastmile_qr_scan,https://dc.lft.to/lastmile_qr_scan,18:56:47
1,3,Crystal Dr & 20th St S,"['KEY', 'CREDITCARD']",38.856425,[],True,31002,08246c35-1f3f-11e7-bf6b-3863bb334450,17,41,False,3,-77.049232,classic,False,https://dc.lft.to/lastmile_qr_scan,https://dc.lft.to/lastmile_qr_scan,18:56:47
2,4,Crystal Dr & 15th St S,"['KEY', 'CREDITCARD']",38.861056,[],True,31003,08246cd5-1f3f-11e7-bf6b-3863bb334450,16,41,False,4,-77.049417,classic,False,https://dc.lft.to/lastmile_qr_scan,https://dc.lft.to/lastmile_qr_scan,18:56:47
3,5,Aurora Hills Cmty Ctr / 18th St & S Hayes St,"['KEY', 'CREDITCARD']",38.857866,[],True,31004,08246d68-1f3f-11e7-bf6b-3863bb334450,12,41,False,5,-77.05949,classic,False,https://dc.lft.to/lastmile_qr_scan,https://dc.lft.to/lastmile_qr_scan,18:56:47
4,6,Pentagon City Metro / 12th St & S Hayes St,"['KEY', 'CREDITCARD']",38.862303,[],True,31005,08246df5-1f3f-11e7-bf6b-3863bb334450,19,41,False,6,-77.059936,classic,False,https://dc.lft.to/lastmile_qr_scan,https://dc.lft.to/lastmile_qr_scan,18:56:47
5,7,Army Navy Dr & S Joyce St,"['KEY', 'CREDITCARD']",38.86331354301248,[],True,31006,08246e8c-1f3f-11e7-bf6b-3863bb334450,16,41,False,7,-77.06341624259947,classic,False,https://dc.lft.to/lastmile_qr_scan,https://dc.lft.to/lastmile_qr_scan,18:56:47
6,8,Crystal City Metro / 18th St & S Bell St,"['KEY', 'CREDITCARD']",38.85778509815245,[],True,31007,08246f1f-1f3f-11e7-bf6b-3863bb334450,19,41,False,8,-77.05169767141342,classic,False,https://dc.lft.to/lastmile_qr_scan,https://dc.lft.to/lastmile_qr_scan,18:56:47
7,10,Crystal Dr & 27th St S,"['KEY', 'CREDITCARD']",38.848466,[],True,31009,08247052-1f3f-11e7-bf6b-3863bb334450,12,41,False,10,-77.051514,classic,False,https://dc.lft.to/lastmile_qr_scan,https://dc.lft.to/lastmile_qr_scan,18:56:47
8,11,S Glebe Rd & Potomac Ave,"['KEY', 'CREDITCARD']",38.8426,[],True,31010,08247269-1f3f-11e7-bf6b-3863bb334450,11,41,False,11,-77.0502,classic,False,https://dc.lft.to/lastmile_qr_scan,https://dc.lft.to/lastmile_qr_scan,18:56:47
9,12,Crystal Dr & 23rd St S,"['KEY', 'CREDITCARD']",38.852929,[],True,31011,08247310-1f3f-11e7-bf6b-3863bb334450,17,41,False,12,-77.049723,classic,False,https://dc.lft.to/lastmile_qr_scan,https://dc.lft.to/lastmile_qr_scan,18:56:47
10,13,Clark St & 26th St S,"['KEY', 'CREDITCARD']",38.850688,[],True,31012,0824739d-1f3f-11e7-bf6b-3863bb334450,12,41,False,13,-77.05152,classic,False,https://dc.lft.to/lastmile_qr_scan,https://dc.lft.to/lastmile_qr_scan,18:56:47
11,14,19th St & Pennsylvania Ave NW,"['KEY', 'CREDITCARD']",38.9003,[],True,31100,0824741d-1f3f-11e7-bf6b-3863bb334450,15,42,False,14,-77.0429,classic,False,https://dc.lft.to/lastmile_qr_scan,https://dc.lft.to/lastmile_qr_scan,18:56:47
12,15,14th & V St NW,"['KEY', 'CREDITCARD']",38.9177645,[],True,31101,0824749f-1f3f-11e7-bf6b-3863bb334450,31,42,False,15,-77.032096,classic,False,https://dc.lft.to/lastmile_qr_scan,https://dc.lft.to/lastmile_qr_scan,18:56:47
13,16,11th & Kenyon St NW,"['KEY', 'CREDITCARD']",38.929464,[],True,31102,08247522-1f3f-11e7-bf6b-3863bb334450,37,42,False,16,-77.027822,classic,False,https://dc.lft.to/lastmile_qr_scan,https://dc.lft.to/lastmile_qr_scan,18:56:47
14,18,Adams Mill & Columbia Rd NW,"['KEY', 'CREDITCARD']",38.922925,[],True,31104,08247632-1f3f-11e7-bf6b-3863bb334450,15,42,False,18,-77.042581,classic,False,https://dc.lft.to/lastmile_qr_scan,https://dc.lft.to/lastmile_qr_scan,18:56:47
15,19,14th & Harvard St NW,"['KEY', 'CREDITCARD']",38.9268,[],True,31105,082476ba-1f3f-11e7-bf6b-3863bb334450,19,42,False,19,-77.0322,classic,False,https://dc.lft.to/lastmile_qr_scan,https://dc.lft.to/lastmile_qr_scan,18:56:47
16,20,Calvert & Biltmore St NW,"['KEY', 'CREDITCARD']",38.923203,[],True,31106,0824773f-1f3f-11e7-bf6b-3863bb334450,23,42,False,20,-77.047637,classic,False,https://dc.lft.to/lastmile_qr_scan,https://dc.lft.to/lastmile_qr_scan,18:56:47
17,21,Lamont & Mt Pleasant NW,"['KEY', 'CREDITCARD']",38.9319,[],True,31107,082477f4-1f3f-11e7-bf6b-3863bb334450,19,42,False,21,-77.0388,classic,False,https://dc.lft.to/lastmile_qr_scan,https://dc.lft.to/lastmile_qr_scan,18:56:47
18,22,4th & M St SW,"['KEY', 'CREDITCARD']",38.876697,[],True,31108,08247896-1f3f-11e7-bf6b-3863bb334450,23,42,False,22,-77.0178975,classic,False,https://dc.lft.to/lastmile_qr_scan,https://dc.lft.to/lastmile_qr_scan,18:56:47
19,23,15th & P St NW,"['KEY', 'CREDITCARD']",38.90980062655191,[],True,31201,0824791a-1f3f-11e7-bf6b-3863bb334450,19,42,False,23,-77.03442692756653,classic,False,https://dc.lft.to/lastmile_qr_scan,https://dc.lft.to/lastmile_qr_scan,18:56:47
20,24,14th & R St NW,"['KEY', 'CREDITCARD']",38.913046,[],True,31202,0824799f-1f3f-11e7-bf6b-3863bb334450,19,42,False,24,-77.032008,classic,False,https://dc.lft.to/lastmile_qr_scan,https://dc.lft.to/lastmile_qr_scan,18:56:47
21,25,14th & Rhode Island Ave NW,"['KEY', 'CREDITCARD']",38.9086,[],True,31203,08247a21-1f3f-11e7-bf6b-3863bb334450,23,42,False,25,-77.0323,classic,False,https://dc.lft.to/lastmile_qr_scan,https://dc.lft.to/lastmile_qr_scan,18:56:47
22,26,20th & E St NW,"['KEY', 'CREDITCARD']",38.8963,[],True,31204,08247aa4-1f3f-11e7-bf6b-3863bb334450,15,42,False,26,-77.045,classic,False,https://dc.lft.to/lastmile_qr_scan,https://dc.lft.to/lastmile_qr_scan,18:56:47
23,27,21st & I St NW,"['KEY', 'CREDITCARD']",38.90071062547463,[],True,31205,08247b29-1f3f-11e7-bf6b-3863bb334450,35,42,False,27,-77.04644858837128,classic,False,https://dc.lft.to/lastmile_qr_scan,https://dc.lft.to/lastmile_qr_scan,18:56:47
24,28,Georgia & New Hampshire Ave NW,"['KEY', 'CREDITCARD']",38.9366839345886,[],True,31400,08247baa-1f3f-11e7-bf6b-3863bb334450,19,42,False,28,-77.02418088912964,classic,False,https://dc.lft.to/lastmile_qr_scan,https://dc.lft.to/lastmile_qr_scan,18:56:47
25,29,14th St & Spring Rd NW,"['KEY', 'CREDITCARD']",38.9375,[],True,31401,08247c29-1f3f-11e7-bf6b-3863bb334450,19,42,False,29,-77.0328,classic,False,https://dc.lft.to/lastmile_qr_scan,https://dc.lft.to/lastmile_qr_scan,18:56:47
26,30,John McCormack Dr & Michigan Ave NE,"['KEY', 'CREDITCARD']",38.9346,[],True,31502,08247cac-1f3f-11e7-bf6b-3863bb334450,11,42,False,30,-76.9955,classic,False,https://dc.lft.to/lastmile_qr_scan,https://dc.lft.to/lastmile_qr_scan,18:56:47
27,31,5th & K St NW,"['KEY', 'CREDITCARD']",38.90304,[],True,31600,08247d46-1f3f-11e7-bf6b-3863bb334450,19,42,False,31,-77.019027,classic,False,https://dc.lft.to/lastmile_qr_scan,https://dc.lft.to/lastmile_qr_scan,18:56:47
28,32,19th & East Capitol St SE,"['KEY', 'CREDITCARD']",38.8896,[],True,31601,08247dd0-1f3f-11e7-bf6b-3863bb334450,15,42,False,32,-76.9769,classic,False,https://dc.lft.to/lastmile_qr_scan,https://dc.lft.to/lastmile_qr_scan,18:56:47
29,33,Park Rd & Holmead Pl NW,"['KEY', 'CREDITCARD']",38.9308,[],True,31602,08247e59-1f3f-11e7-bf6b-3863bb334450,35,42,False,33,-77.0315,classic,False,https://dc.lft.to/lastmile_qr_scan,https://dc.lft.to/lastmile_qr_scan,18:56:47
30,34,Good Hope & Naylor Rd SE,"['KEY', 'CREDITCARD']",38.861663,[],True,31700,08247ed8-1f3f-11e7-bf6b-3863bb334450,19,42,False,34,-76.969184,classic,False,https://dc.lft.to/lastmile_qr_scan,https://dc.lft.to/lastmile_qr_scan,18:56:47
31,35,Connecticut Ave & Macomb St NW / Cleveland Park,"['KEY', 'CREDITCARD']",38.93362634918731,[],True,31305,08247f59-1f3f-11e7-bf6b-3863bb334450,11,42,False,35,-77.0575301349163,classic,False,https://dc.lft.to/lastmile_qr_scan,https://dc.lft.to/lastmile_qr_scan,18:56:47
32,36,Randle Circle & Minnesota Ave SE,"['KEY', 'CREDITCARD']",38.878,[],True,31702,08247fe1-1f3f-11e7-bf6b-3863bb334450,11,42,False,36,-76.9607,classic,False,https://dc.lft.to/lastmile_qr_scan,https://dc.lft.to/lastmile_qr_scan,18:56:47
33,37,Minnesota Ave Metro/DOES,"['KEY', 'CREDITCARD']",38.897063,[],True,31703,0824806c-1f3f-11e7-bf6b-3863bb334450,15,42,False,37,-76.947446,classic,False,https://dc.lft.to/lastmile_qr_scan,https://dc.lft.to/lastmile_qr_scan,18:56:47
34,38,Nannie Helen Burroughs & Minnesota Ave NE,"['KEY', 'CREDITCARD']",38.901385,[],True,31704,082480f1-1f3f-11e7-bf6b-3863bb334450,11,42,False,38,-76.941877,classic,False,https://dc.lft.to/lastmile_qr_scan,https://dc.lft.to/lastmile_qr_scan,18:56:47
35,39,Anacostia Metro,"['KEY', 'CREDITCARD']",38.862669,[],True,31801,08248172-1f3f-11e7-bf6b-3863bb334450,19,42,False,39,-76.994637,classic,False,https://dc.lft.to/lastmile_qr_scan,https://dc.lft.to/lastmile_qr_scan,18:56:47
36,40,Good Hope Rd & MLK Ave SE,"['KEY', 'CREDITCARD']",38.867373,[],True,31802,0824821f-1f3f-11e7-bf6b-3863bb334450,11,42,False,40,-76.988039,classic,False,https://dc.lft.to/lastmile_qr_scan,https://dc.lft.to/lastmile_qr_scan,18:56:47
37,41,19th & E Street NW,"['KEY', 'CREDITCARD']",38.8952,[],True,31206,082482b3-1f3f-11e7-bf6b-3863bb334450,11,42,False,41,-77.0436,classic,False,https://dc.lft.to/lastmile_qr_scan,https://dc.lft.to/lastmile_qr_scan,18:56:47
38,42,4th & W St NE,"['KEY', 'CREDITCARD']",38.919077,[],True,31500,0824833c-1f3f-11e7-bf6b-3863bb334450,15,42,False,42,-77.000648,classic,False,https://dc.lft.to/lastmile_qr_scan,https://dc.lft.to/lastmile_qr_scan,18:56:47
39,43,10th & U St NW,"['KEY', 'CREDITCARD']",38.9172,[],True,31111,082483c2-1f3f-11e7-bf6b-3863bb334450,15,42,False,43,-77.0259,classic,False,https://dc.lft.to/lastmile_qr_scan,https://dc.lft.to/lastmile_qr_scan,18:56:47
40,44,Georgia Ave & Fairmont St NW,"['KEY', 'CREDITCARD']",38.9249,[],True,31207,0824844b-1f3f-11e7-bf6b-3863bb334450,15,42,False,44,-77.0222,classic,False,https://dc.lft.to/lastmile_qr_scan,https://dc.lft.to/lastmile_qr_scan,18:56:47
41,45,1st & N St SE,"['KEY', 'CREDITCARD']",38.874101857715736,[],True,31209,082484cf-1f3f-11e7-bf6b-3863bb334450,39,42,False,45,-77.00579434633255,classic,False,https://dc.lft.to/lastmile_qr_scan,https://dc.lft.to/lastmile_qr_scan,18:56:47
42,46,20th St & Florida Ave NW,"['KEY', 'CREDITCARD']",38.9154,[],True,31110,0824854e-1f3f-11e7-bf6b-3863bb334450,15,42,False,46,-77.0446,classic,False,https://dc.lft.to/lastmile_qr_scan,https://dc.lft.to/lastmile_qr_scan,18:56:47
43,47,7th & T St NW,"['KEY', 'CREDITCARD']",38.9155,[],True,31109,082485e8-1f3f-11e7-bf6b-3863bb334450,15,42,False,47,-77.0222,classic,False,https://dc.lft.to/lastmile_qr_scan,https://dc.lft.to/lastmile_qr_scan,18:56:47
44,48,Eads St & 22nd St S,"['KEY', 'CREDITCARD']",38.85438051517749,[],True,31013,0824866e-1f3f-11e7-bf6b-3863bb334450,15,41,False,48,-77.05341160297394,classic,False,https://dc.lft.to/lastmile_qr_scan,https://dc.lft.to/lastmile_qr_scan,18:56:47
45,49,M St & New Jersey Ave SE,"['KEY', 'CREDITCARD']",38.8763,[],True,31208,082486f0-1f3f-11e7-bf6b-3863bb334450,17,42,False,49,-77.0037,classic,False,https://dc.lft.to/lastmile_qr_scan,https://dc.lft.to/lastmile_qr_scan,18:56:47
46,51,Massachusetts Ave & Dupont Circle NW,"['KEY', 'CREDITCARD']",38.9101,[],True,31200,0824920a-1f3f-11e7-bf6b-3863bb334450,45,42,False,51,-77.0444,classic,False,https://dc.lft.to/lastmile_qr_scan,https://dc.lft.to/lastmile_qr_scan,18:56:47
47,52,1st & M St NE,"['KEY', 'CREDITCARD']",38.905697,[],True,31603,0824927c-1f3f-11e7-bf6b-3863bb334450,15,42,False,52,-77.005483,classic,False,https://dc.lft.to/lastmile_qr_scan,https://dc.lft.to/lastmile_qr_scan,18:56:47
48,53,New Hampshire Ave & Ward Pl NW,"['KEY', 'CREDITCARD']",38.90571079190728,[],True,31212,082492e1-1f3f-11e7-bf6b-3863bb334450,19,42,False,53,-77.0473176240921,classic,False,https://dc.lft.to/lastmile_qr_scan,https://dc.lft.to/lastmile_qr_scan,18:56:47
49,54,17th & K St NW,"['KEY', 'CREDITCARD']",38.90276,[],True,31213,08249345-1f3f-11e7-bf6b-3863bb334450,23,42,False,54,-77.03863,classic,False,https://dc.lft.to/lastmile_qr_scan,https://dc.lft.to/lastmile_qr_scan,18:56:47
50,55,3rd & H St NW,"['KEY', 'CREDITCARD']",38.899408,[],True,31604,082493a5-1f3f-11e7-bf6b-3863bb334450,15,42,False,55,-77.015289,classic,False,https://dc.lft.to/lastmile_qr_scan,https://dc.lft.to/lastmile_qr_scan,18:56:47
51,56,3rd & D St SE,"['KEY', 'CREDITCARD']",38.8851,[],True,31605,08249407-1f3f-11e7-bf6b-3863bb334450,11,42,False,56,-77.0023,classic,False,https://dc.lft.to/lastmile_qr_scan,https://dc.lft.to/lastmile_qr_scan,18:56:47
52,57,Potomac & Pennsylvania Ave SE,"['KEY', 'CREDITCARD']",38.8803,[],True,31606,08249480-1f3f-11e7-bf6b-3863bb334450,15,42,False,57,-76.9862,classic,False,https://dc.lft.to/lastmile_qr_scan,https://dc.lft.to/lastmile_qr_scan,18:56:47
53,58,13th & E St SE,"['KEY', 'CREDITCARD']",38.88291548476762,[],True,31607,082494e7-1f3f-11e7-bf6b-3863bb334450,15,42,False,58,-76.98790669441223,classic,False,https://dc.lft.to/lastmile_qr_scan,https://dc.lft.to/lastmile_qr_scan,18:56:47
54,59,17th & Corcoran St NW,"['KEY', 'CREDITCARD']",38.9121,[],True,31214,08249549-1f3f-11e7-bf6b-3863bb334450,19,42,False,59,-77.0387,classic,False,https://dc.lft.to/lastmile_qr_scan,https://dc.lft.to/lastmile_qr_scan,18:56:47
55,60,Van Ness Metro / UDC,"['KEY', 'CREDITCARD']",38.944551,[],True,31300,082495aa-1f3f-11e7-bf6b-3863bb334450,15,42,False,60,-77.063896,classic,False,https://dc.lft.to/lastmile_qr_scan,https://dc.lft.to/lastmile_qr_scan,18:56:47
56,61,Florida Ave & R St NW,"['KEY', 'CREDITCARD']",38.9126,[],True,31503,0824960b-1f3f-11e7-bf6b-3863bb334450,15,42,False,61,-77.0135,classic,False,https://dc.lft.to/lastmile_qr_scan,https://dc.lft.to/lastmile_qr_scan,18:56:47
57,62,8th & Eye St SE / Barracks Row,"['KEY', 'CREDITCARD']",38.8792,[],True,31608,08249671-1f3f-11e7-bf6b-3863bb334450,11,42,False,62,-76.9953,classic,False,https://dc.lft.to/lastmile_qr_scan,https://dc.lft.to/lastmile_qr_scan,18:56:47
58,63,Ward Circle / American University,"['KEY', 'CREDITCARD']",38.938736,[],True,31301,082496d9-1f3f-11e7-bf6b-3863bb334450,15,42,False,63,-77.087171,classic,False,https://dc.lft.to/lastmile_qr_scan,https://dc.lft.to/lastmile_qr_scan,18:56:47
59,64,Wisconsin Ave & Newark St NW,"['KEY', 'CREDITCARD']",38.934881,[],True,31302,0824973c-1f3f-11e7-bf6b-3863bb334450,19,42,False,64,-77.072755,classic,False,https://dc.lft.to/lastmile_qr_scan,https://dc.lft.to/lastmile_qr_scan,18:56:47
60,65,14th St Heights / 14th & Crittenden St NW,"['KEY', 'CREDITCARD']",38.947774,[],True,31402,0824979f-1f3f-11e7-bf6b-3863bb334450,11,42,False,65,-77.032818,classic,False,https://dc.lft.to/lastmile_qr_scan,https://dc.lft.to/lastmile_qr_scan,18:56:47
61,66,Anacostia Library,"['KEY', 'CREDITCARD']",38.865784,[],True,31804,0824980b-1f3f-11e7-bf6b-3863bb334450,11,42,False,66,-76.9784,classic,False,https://dc.lft.to/lastmile_qr_scan,https://dc.lft.to/lastmile_qr_scan,18:56:47
62,67,Pennsylvania & Minnesota Ave SE,"['KEY', 'CREDITCARD']",38.873057,[],True,31805,082498ac-1f3f-11e7-bf6b-3863bb334450,11,42,False,67,-76.971015,classic,False,https://dc.lft.to/lastmile_qr_scan,https://dc.lft.to/lastmile_qr_scan,18:56:47
63,68,Eastern Market / 7th & North Carolina Ave SE,"['KEY', 'CREDITCARD']",38.886952,[],True,31610,08249a1c-1f3f-11e7-bf6b-3863bb334450,15,42,False,68,-76.996806,classic,False,https://dc.lft.to/lastmile_qr_scan,https://dc.lft.to/lastmile_qr_scan,18:56:47
64,69,14th St & New York Ave NW,"['KEY', 'CREDITCARD']",38.899632,[],True,31216,08249aa2-1f3f-11e7-bf6b-3863bb334450,23,42,False,69,-77.031686,classic,False,https://dc.lft.to/lastmile_qr_scan,https://dc.lft.to/lastmile_qr_scan,18:56:47
65,70,Benning Branch Library,"['KEY', 'CREDITCARD']",38.894,[],True,31705,08249b10-1f3f-11e7-bf6b-3863bb334450,11,42,False,70,-76.947974,classic,False,https://dc.lft.to/lastmile_qr_scan,https://dc.lft.to/lastmile_qr_scan,18:56:47
66,71,USDA / 12th & C St SW,"['KEY', 'CREDITCARD']",38.88627694506511,[],True,31217,08249b7f-1f3f-11e7-bf6b-3863bb334450,39,42,False,71,-77.02824175357819,classic,False,https://dc.lft.to/lastmile_qr_scan,https://dc.lft.to/lastmile_qr_scan,18:56:47
67,72,Georgetown Harbor / 30th St NW,"['KEY', 'CREDITCARD']",38.902314,[],True,31215,08249be7-1f3f-11e7-bf6b-3863bb334450,19,42,False,72,-77.0591415,classic,False,https://dc.lft.to/lastmile_qr_scan,https://dc.lft.to/lastmile_qr_scan,18:56:47
68,73,12th & Newton St NE,"['KEY', 'CREDITCARD']",38.933668,[],True,31501,08249c5a-1f3f-11e7-bf6b-3863bb334450,11,42,False,73,-76.991016,classic,False,https://dc.lft.to/lastmile_qr_scan,https://dc.lft.to/lastmile_qr_scan,18:56:47
69,74,US Dept of State / Virginia Ave & 21st St NW,"['KEY', 'CREDITCARD']",38.894919,[],True,31220,08249cd3-1f3f-11e7-bf6b-3863bb334450,15,42,False,74,-77.046587,classic,False,https://dc.lft.to/lastmile_qr_scan,https://dc.lft.to/lastmile_qr_scan,18:56:47
70,75,L'Enfant Plaza / 7th & C St SW,"['KEY', 'CREDITCARD']",38.886266,[],True,31218,08249d44-1f3f-11e7-bf6b-3863bb334450,15,42,False,75,-77.022241,classic,False,https://dc.lft.to/lastmile_qr_scan,https://dc.lft.to/lastmile_qr_scan,18:56:47
71,76,10th St & Constitution Ave NW,"['KEY', 'CREDITCARD']",38.893028,[],True,31219,08249dad-1f3f-11e7-bf6b-3863bb334450,31,42,False,76,-77.026013,classic,False,https://dc.lft.to/lastmile_qr_scan,https://dc.lft.to/lastmile_qr_scan,18:56:47
72,77,Kennedy Center,"['KEY', 'CREDITCARD']",38.897293,[],True,31211,08249e19-1f3f-11e7-bf6b-3863bb334450,19,42,False,77,-77.05557,classic,False,https://dc.lft.to/lastmile_qr_scan,https://dc.lft.to/lastmile_qr_scan,18:56:47
73,78,Eastern Market Metro / Pennsylvania Ave & 8th St SE,"['KEY', 'CREDITCARD']",38.88409514578027,[],True,31613,08249e81-1f3f-11e7-bf6b-3863bb334450,19,42,False,78,-76.99523448944092,classic,False,https://dc.lft.to/lastmile_qr_scan,https://dc.lft.to/lastmile_qr_scan,18:56:47
74,79,18th & M St NW,"['KEY', 'CREDITCARD']",38.90506687455313,[],True,31221,08249ef2-1f3f-11e7-bf6b-3863bb334450,27,42,False,79,-77.04177886247635,classic,False,https://dc.lft.to/lastmile_qr_scan,https://dc.lft.to/lastmile_qr_scan,18:56:47
75,80,Tenleytown / Wisconsin Ave & Albemarle St NW,"['KEY', 'CREDITCARD']",38.947607,[],True,31303,08249f58-1f3f-11e7-bf6b-3863bb334450,15,42,False,80,-77.079382,classic,False,https://dc.lft.to/lastmile_qr_scan,https://dc.lft.to/lastmile_qr_scan,18:56:47
76,81,13th & H St NE,"['KEY', 'CREDITCARD']",38.90042673988099,[],True,31611,08249fbc-1f3f-11e7-bf6b-3863bb334450,27,42,False,81,-76.98825001716614,classic,False,https://dc.lft.to/lastmile_qr_scan,https://dc.lft.to/lastmile_qr_scan,18:56:47
77,82,5th & F St NW,"['KEY', 'CREDITCARD']",38.897222,[],True,31620,0824a28b-1f3f-11e7-bf6b-3863bb334450,30,42,False,82,-77.019347,classic,False,https://dc.lft.to/lastmile_qr_scan,https://dc.lft.to/lastmile_qr_scan,18:56:47
78,83,New York Ave & 15th St NW,"['KEY', 'CREDITCARD']",38.89903234416315,[],True,31222,0824a43b-1f3f-11e7-bf6b-3863bb334450,19,42,False,83,-77.03335404396057,classic,False,https://dc.lft.to/lastmile_qr_scan,https://dc.lft.to/lastmile_qr_scan,18:56:47
79,84,Convention Center / 7th & M St NW,"['KEY', 'CREDITCARD']",38.905737,[],True,31223,0824a4ce-1f3f-11e7-bf6b-3863bb334450,23,42,False,84,-77.02227,classic,False,https://dc.lft.to/lastmile_qr_scan,https://dc.lft.to/lastmile_qr_scan,18:56:47
80,85,Harvard St & Adams Mill Rd NW,"['KEY', 'CREDITCARD']",38.927872,[],True,31112,0824a53f-1f3f-11e7-bf6b-3863bb334450,15,42,False,85,-77.043358,classic,False,https://dc.lft.to/lastmile_qr_scan,https://dc.lft.to/lastmile_qr_scan,18:56:47
81,86,18th & L St NW,"['KEY', 'CREDITCARD']",38.903741450919384,[],True,31224,0824a5b0-1f3f-11e7-bf6b-3863bb334450,19,42,False,86,-77.04245209693909,classic,False,https://dc.lft.to/lastmile_qr_scan,https://dc.lft.to/lastmile_qr_scan,18:56:47
82,87,C & O Canal & Wisconsin Ave NW,"['KEY', 'CREDITCARD']",38.90375,[],True,31225,0824a623-1f3f-11e7-bf6b-3863bb334450,23,42,False,87,-77.06269,classic,False,https://dc.lft.to/lastmile_qr_scan,https://dc.lft.to/lastmile_qr_scan,18:56:47
83,88,Maine Ave & 7th St SW,"['KEY', 'CREDITCARD']",38.878693599396954,[],True,31609,0824a68f-1f3f-11e7-bf6b-3863bb334450,19,42,False,88,-77.02305436134338,classic,False,https://dc.lft.to/lastmile_qr_scan,https://dc.lft.to/lastmile_qr_scan,18:56:47
84,89,D St & Maryland Ave NE,"['KEY', 'CREDITCARD']",38.89484064247075,[],True,31612,0824a703-1f3f-11e7-bf6b-3863bb334450,23,42,False,89,-76.99591577053069,classic,False,https://dc.lft.to/lastmile_qr_scan,https://dc.lft.to/lastmile_qr_scan,18:56:47
85,90,34th St & Wisconsin Ave NW,"['KEY', 'CREDITCARD']",38.916442,[],True,31226,0824a988-1f3f-11e7-bf6b-3863bb334450,11,42,False,90,-77.0682,classic,False,https://dc.lft.to/lastmile_qr_scan,https://dc.lft.to/lastmile_qr_scan,18:56:47
86,91,13th St & New York Ave NW,"['KEY', 'CREDITCARD']",38.900283,[],True,31227,0824aa39-1f3f-11e7-bf6b-3863bb334450,23,42,False,91,-77.029822,classic,False,https://dc.lft.to/lastmile_qr_scan,https://dc.lft.to/lastmile_qr_scan,18:56:47
87,92,8th & H St NW,"['KEY', 'CREDITCARD']",38.8997,[],True,31228,0824b9cc-1f3f-11e7-bf6b-3863bb334450,33,42,False,92,-77.023086,classic,False,https://dc.lft.to/lastmile_qr_scan,https://dc.lft.to/lastmile_qr_scan,18:56:47
88,93,10th & Monroe St NE,"['KEY', 'CREDITCARD']",38.932456900063606,[],True,31504,0824bb59-1f3f-11e7-bf6b-3863bb334450,19,42,False,93,-76.99353396892548,classic,False,https://dc.lft.to/lastmile_qr_scan,https://dc.lft.to/lastmile_qr_scan,18:56:47
89,94,Eckington Pl & Q St NE,"['KEY', 'CREDITCARD']",38.910972,[],True,31505,0824bc00-1f3f-11e7-bf6b-3863bb334450,23,42,False,94,-77.00495,classic,False,https://dc.lft.to/lastmile_qr_scan,https://dc.lft.to/lastmile_qr_scan,18:56:47
90,95,6th & H St NE,"['KEY', 'CREDITCARD']",38.899972,[],True,31615,0824bc70-1f3f-11e7-bf6b-3863bb334450,23,42,False,95,-76.998347,classic,False,https://dc.lft.to/lastmile_qr_scan,https://dc.lft.to/lastmile_qr_scan,18:56:47
91,96,3rd & H St NE,"['KEY', 'CREDITCARD']",38.900412,[],True,31616,0824bce1-1f3f-11e7-bf6b-3863bb334450,19,42,False,96,-77.001949,classic,False,https://dc.lft.to/lastmile_qr_scan,https://dc.lft.to/lastmile_qr_scan,18:56:47
92,97,Bladensburg Rd & Benning Rd NE,"['KEY', 'CREDITCARD']",38.900413,[],True,31617,0824c0d5-1f3f-11e7-bf6b-3863bb334450,15,42,False,97,-76.982872,classic,False,https://dc.lft.to/lastmile_qr_scan,https://dc.lft.to/lastmile_qr_scan,18:56:47
93,98,4th & East Capitol St NE,"['KEY', 'CREDITCARD']",38.889955,[],True,31618,0824c1a1-1f3f-11e7-bf6b-3863bb334450,11,42,False,98,-77.000349,classic,False,https://dc.lft.to/lastmile_qr_scan,https://dc.lft.to/lastmile_qr_scan,18:56:47
94,99,Lincoln Park / 13th & East Capitol St NE ,"['KEY', 'CREDITCARD']",38.890461,[],True,31619,0824c229-1f3f-11e7-bf6b-3863bb334450,25,42,False,99,-76.988355,classic,False,https://dc.lft.to/lastmile_qr_scan,https://dc.lft.to/lastmile_qr_scan,18:56:47
95,100,Branch & Pennsylvania Ave SE,"['KEY', 'CREDITCARD']",38.8692,[],True,31701,0824c29d-1f3f-11e7-bf6b-3863bb334450,11,42,False,100,-76.9599,classic,False,https://dc.lft.to/lastmile_qr_scan,https://dc.lft.to/lastmile_qr_scan,18:56:47
96,101,13th & D St NE,"['KEY', 'CREDITCARD']",38.894832,[],True,31622,0824c309-1f3f-11e7-bf6b-3863bb334450,31,42,False,101,-76.987633,classic,False,https://dc.lft.to/lastmile_qr_scan,https://dc.lft.to/lastmile_qr_scan,18:56:47
97,102,New Hampshire Ave & T St NW,"['KEY', 'CREDITCARD']",38.915544,[],True,31229,0824c376-1f3f-11e7-bf6b-3863bb334450,23,42,False,102,-77.038252,classic,False,https://dc.lft.to/lastmile_qr_scan,https://dc.lft.to/lastmile_qr_scan,18:56:47
98,103,Metro Center / 12th & G St NW,"['KEY', 'CREDITCARD']",38.898364,[],True,31230,0824c604-1f3f-11e7-bf6b-3863bb334450,39,42,False,103,-77.027869,classic,False,https://dc.lft.to/lastmile_qr_scan,https://dc.lft.to/lastmile_qr_scan,18:56:47
99,104,14th & D St NW / Ronald Reagan Building,"['KEY', 'CREDITCARD']",38.894514,[],True,31231,0824c69b-1f3f-11e7-bf6b-3863bb334450,25,42,False,104,-77.031617,classic,False,https://dc.lft.to/lastmile_qr_scan,https://dc.lft.to/lastmile_qr_scan,18:56:47
100,105,7th & F St NW / National Portrait Gallery,"['KEY', 'CREDITCARD']",38.89728304853854,[],True,31232,0824c772-1f3f-11e7-bf6b-3863bb334450,27,42,False,105,-77.02219069004059,classic,False,https://dc.lft.to/lastmile_qr_scan,https://dc.lft.to/lastmile_qr_scan,18:56:47
101,106,17th & K St NW / Farragut Square,"['KEY', 'CREDITCARD']",38.902061,[],True,31233,0824c80d-1f3f-11e7-bf6b-3863bb334450,35,42,False,106,-77.038322,classic,False,https://dc.lft.to/lastmile_qr_scan,https://dc.lft.to/lastmile_qr_scan,18:56:47
102,107,20th & O St NW / Dupont South,"['KEY', 'CREDITCARD']",38.908905,[],True,31234,0824c8d2-1f3f-11e7-bf6b-3863bb334450,19,42,False,107,-77.04478,classic,False,https://dc.lft.to/lastmile_qr_scan,https://dc.lft.to/lastmile_qr_scan,18:56:47
103,108,4th & D St NW / Judiciary Square,"['KEY', 'CREDITCARD']",38.895344,[],True,31621,0824cb9b-1f3f-11e7-bf6b-3863bb334450,15,42,False,108,-77.016106,classic,False,https://dc.lft.to/lastmile_qr_scan,https://dc.lft.to/lastmile_qr_scan,18:56:47
104,109,19th St & Constitution Ave NW,"['KEY', 'CREDITCARD']",38.8923,[],True,31235,0824cd3d-1f3f-11e7-bf6b-3863bb334450,35,42,False,109,-77.0436,classic,False,https://dc.lft.to/lastmile_qr_scan,https://dc.lft.to/lastmile_qr_scan,18:56:47
105,110,37th & O St NW / Georgetown University,"['KEY', 'CREDITCARD']",38.90774,[],True,31236,0824cdb0-1f3f-11e7-bf6b-3863bb334450,23,42,False,110,-77.071652,classic,False,https://dc.lft.to/lastmile_qr_scan,https://dc.lft.to/lastmile_qr_scan,18:56:47
106,112,25th St & Pennsylvania Ave NW,"['KEY', 'CREDITCARD']",38.903827,[],True,31237,0824cfe7-1f3f-11e7-bf6b-3863bb334450,15,42,False,112,-77.053485,classic,False,https://dc.lft.to/lastmile_qr_scan,https://dc.lft.to/lastmile_qr_scan,18:56:47
107,113,Columbus Circle / Union Station,"['KEY', 'CREDITCARD']",38.89696,[],True,31623,0824d0c6-1f3f-11e7-bf6b-3863bb334450,55,42,False,113,-77.00493,classic,False,https://dc.lft.to/lastmile_qr_scan,https://dc.lft.to/lastmile_qr_scan,18:56:47
108,114,North Capitol St & F St NW,"['KEY', 'CREDITCARD']",38.897446,[],True,31624,0824d140-1f3f-11e7-bf6b-3863bb334450,23,42,False,114,-77.009888,classic,False,https://dc.lft.to/lastmile_qr_scan,https://dc.lft.to/lastmile_qr_scan,18:56:47
109,115,11th & M St NW,"['KEY', 'CREDITCARD']",38.9055785,[],True,31266,0824de05-1f3f-11e7-bf6b-3863bb334450,19,42,False,115,-77.027313,classic,False,https://dc.lft.to/lastmile_qr_scan,https://dc.lft.to/lastmile_qr_scan,18:56:47
110,116,36th & Calvert St NW / Glover Park,"['KEY', 'CREDITCARD']",38.922581,[],True,31304,0824e189-1f3f-11e7-bf6b-3863bb334450,15,42,False,116,-77.070334,classic,False,https://dc.lft.to/lastmile_qr_scan,https://dc.lft.to/lastmile_qr_scan,18:56:47
111,117,14th & G St NW,"['KEY', 'CREDITCARD']",38.898409,[],True,31238,0824e24c-1f3f-11e7-bf6b-3863bb334450,23,42,False,117,-77.032278,classic,False,https://dc.lft.to/lastmile_qr_scan,https://dc.lft.to/lastmile_qr_scan,18:56:47
112,118,Potomac Ave & 35th St S,"['KEY', 'CREDITCARD']",38.844015,[],True,31052,0824e2e3-1f3f-11e7-bf6b-3863bb334450,15,41,False,118,-77.050537,classic,False,https://dc.lft.to/lastmile_qr_scan,https://dc.lft.to/lastmile_qr_scan,18:56:47
113,124,Ohio Dr & West Basin Dr SW / MLK & FDR Memorials,"['KEY', 'CREDITCARD']",38.88412,[],True,31240,0824e68d-1f3f-11e7-bf6b-3863bb334450,31,42,False,124,-77.04657,classic,False,https://dc.lft.to/lastmile_qr_scan,https://dc.lft.to/lastmile_qr_scan,18:56:47
114,125,11th & F St NW,"['KEY', 'CREDITCARD']",38.897857,[],True,31262,0824e72a-1f3f-11e7-bf6b-3863bb334450,15,42,False,125,-77.026975,classic,False,https://dc.lft.to/lastmile_qr_scan,https://dc.lft.to/lastmile_qr_scan,18:56:47
115,126,23rd & E St NW ,"['KEY', 'CREDITCARD']",38.896104,[],True,31260,0824e7c1-1f3f-11e7-bf6b-3863bb334450,19,42,False,126,-77.049882,classic,False,https://dc.lft.to/lastmile_qr_scan,https://dc.lft.to/lastmile_qr_scan,18:56:47
116,127,Lynn St & 19th St North,"['KEY', 'CREDITCARD']",38.897315,[],True,31014,0824ea2c-1f3f-11e7-bf6b-3863bb334450,27,41,False,127,-77.070993,classic,False,https://dc.lft.to/lastmile_qr_scan,https://dc.lft.to/lastmile_qr_scan,18:56:47
117,128,Wilson Blvd & Ft Myer Dr,"['KEY', 'CREDITCARD']",38.8946,[],True,31015,0824eb1b-1f3f-11e7-bf6b-3863bb334450,19,41,False,128,-77.072305,classic,False,https://dc.lft.to/lastmile_qr_scan,https://dc.lft.to/lastmile_qr_scan,18:56:47
118,129,Clarendon Blvd & Pierce St,"['KEY', 'CREDITCARD']",38.893438,[],True,31016,0824eba7-1f3f-11e7-bf6b-3863bb334450,15,41,False,129,-77.076389,classic,False,https://dc.lft.to/lastmile_qr_scan,https://dc.lft.to/lastmile_qr_scan,18:56:47
119,130,Wilson Blvd & N Uhle St,"['KEY', 'CREDITCARD']",38.891696,[],True,31017,0824ee0d-1f3f-11e7-bf6b-3863bb334450,15,41,False,130,-77.0846,classic,False,https://dc.lft.to/lastmile_qr_scan,https://dc.lft.to/lastmile_qr_scan,18:56:47
120,131,Rhodes St & 16th St N,"['KEY', 'CREDITCARD']",38.892164,[],True,31018,0824eea3-1f3f-11e7-bf6b-3863bb334450,12,41,False,131,-77.079375,classic,False,https://dc.lft.to/lastmile_qr_scan,https://dc.lft.to/lastmile_qr_scan,18:56:47
121,132,Fairfax Village,"['KEY', 'CREDITCARD']",38.86559,[],True,31706,0824f08b-1f3f-11e7-bf6b-3863bb334450,15,42,False,132,-76.952103,classic,False,https://dc.lft.to/lastmile_qr_scan,https://dc.lft.to/lastmile_qr_scan,18:56:47
122,133,21st St & Constitution Ave NW,"['KEY', 'CREDITCARD']",38.892459,[],True,31261,0824f16b-1f3f-11e7-bf6b-3863bb334450,15,42,False,133,-77.046567,classic,False,https://dc.lft.to/lastmile_qr_scan,https://dc.lft.to/lastmile_qr_scan,18:56:47
123,134,Wilson Blvd & N Edgewood St,"['KEY', 'CREDITCARD']",38.889396070923496,[],True,31019,0824f3d6-1f3f-11e7-bf6b-3863bb334450,15,41,False,134,-77.09186241030693,classic,False,https://dc.lft.to/lastmile_qr_scan,https://dc.lft.to/lastmile_qr_scan,18:56:47
124,135,Columbia Rd & Belmont St NW,"['KEY', 'CREDITCARD']",38.920669,[],True,31113,0824f461-1f3f-11e7-bf6b-3863bb334450,19,42,False,135,-77.04368,classic,False,https://dc.lft.to/lastmile_qr_scan,https://dc.lft.to/lastmile_qr_scan,18:56:47
125,136,Rhode Island & Connecticut Ave NW,"['KEY', 'CREDITCARD']",38.905995699991145,[],True,31239,0824f644-1f3f-11e7-bf6b-3863bb334450,23,42,False,136,-77.03980207443237,classic,False,https://dc.lft.to/lastmile_qr_scan,https://dc.lft.to/lastmile_qr_scan,18:56:47
126,137,Thomas Circle,"['KEY', 'CREDITCARD']",38.9059,[],True,31241,0824f8a2-1f3f-11e7-bf6b-3863bb334450,33,42,False,137,-77.0325,classic,False,https://dc.lft.to/lastmile_qr_scan,https://dc.lft.to/lastmile_qr_scan,18:56:47
127,138,Wilson Blvd & N Franklin Rd,"['KEY', 'CREDITCARD']",38.8904,[],True,31020,0824fb6c-1f3f-11e7-bf6b-3863bb334450,12,41,False,138,-77.0889,classic,False,https://dc.lft.to/lastmile_qr_scan,https://dc.lft.to/lastmile_qr_scan,18:56:47
128,139,Clarendon Blvd & N Fillmore St,"['KEY', 'CREDITCARD']",38.8881,[],True,31021,0824fd71-1f3f-11e7-bf6b-3863bb334450,15,41,False,139,-77.09308,classic,False,https://dc.lft.to/lastmile_qr_scan,https://dc.lft.to/lastmile_qr_scan,18:56:47
129,140,Clarendon Metro / Wilson Blvd & N Highland St,"['KEY', 'CREDITCARD']",38.88701007722296,[],True,31022,0824ff6e-1f3f-11e7-bf6b-3863bb334450,21,41,False,140,-77.09525674581528,classic,False,https://dc.lft.to/lastmile_qr_scan,https://dc.lft.to/lastmile_qr_scan,18:56:47
130,141,18th St & Pennsylvania Ave NW,"['KEY', 'CREDITCARD']",38.89968,[],True,31242,08250172-1f3f-11e7-bf6b-3863bb334450,27,42,False,141,-77.041539,classic,False,https://dc.lft.to/lastmile_qr_scan,https://dc.lft.to/lastmile_qr_scan,18:56:47
131,142,4th & C St SW,"['KEY', 'CREDITCARD']",38.88637194054526,[],True,31243,08250371-1f3f-11e7-bf6b-3863bb334450,39,42,False,142,-77.01770067214966,classic,False,https://dc.lft.to/lastmile_qr_scan,https://dc.lft.to/lastmile_qr_scan,18:56:47
132,143,4th & E St SW,"['KEY', 'CREDITCARD']",38.88412,[],True,31244,082513a4-1f3f-11e7-bf6b-3863bb334450,19,42,False,143,-77.017445,classic,False,https://dc.lft.to/lastmile_qr_scan,https://dc.lft.to/lastmile_qr_scan,18:56:47
133,144,3rd & G St SE,"['KEY', 'CREDITCARD']",38.881185,[],True,31625,08251448-1f3f-11e7-bf6b-3863bb334450,19,42,False,144,-77.001828,classic,False,https://dc.lft.to/lastmile_qr_scan,https://dc.lft.to/lastmile_qr_scan,18:56:47
134,145,7th & R St NW / Shaw Library,"['KEY', 'CREDITCARD']",38.912719,[],True,31245,082514b8-1f3f-11e7-bf6b-3863bb334450,15,42,False,145,-77.022155,classic,False,https://dc.lft.to/lastmile_qr_scan,https://dc.lft.to/lastmile_qr_scan,18:56:47
135,146,9th & Upshur St NW,"['KEY', 'CREDITCARD']",38.9418,[],True,31404,08251532-1f3f-11e7-bf6b-3863bb334450,15,42,False,146,-77.0251,classic,False,https://dc.lft.to/lastmile_qr_scan,https://dc.lft.to/lastmile_qr_scan,18:56:47
136,147,1st & Rhode Island Ave NW,"['KEY', 'CREDITCARD']",38.915417,[],True,31506,082515d4-1f3f-11e7-bf6b-3863bb334450,15,42,False,147,-77.012289,classic,False,https://dc.lft.to/lastmile_qr_scan,https://dc.lft.to/lastmile_qr_scan,18:56:47
137,148,Columbia Rd & Georgia Ave NW,"['KEY', 'CREDITCARD']",38.92812111132096,[],True,31115,0825164b-1f3f-11e7-bf6b-3863bb334450,27,42,False,148,-77.0237946510315,classic,False,https://dc.lft.to/lastmile_qr_scan,https://dc.lft.to/lastmile_qr_scan,18:56:47
138,149,California St & Florida Ave NW,"['KEY', 'CREDITCARD']",38.917761,[],True,31116,082516c1-1f3f-11e7-bf6b-3863bb334450,19,42,False,149,-77.04062,classic,False,https://dc.lft.to/lastmile_qr_scan,https://dc.lft.to/lastmile_qr_scan,18:56:47
139,150,Benning Rd & East Capitol St NE / Benning Rd Metro,"['KEY', 'CREDITCARD']",38.889935,[],True,31707,0825176c-1f3f-11e7-bf6b-3863bb334450,19,42,False,150,-76.93723,classic,False,https://dc.lft.to/lastmile_qr_scan,https://dc.lft.to/lastmile_qr_scan,18:56:47
140,151,3000 Connecticut Ave NW / National Zoo,"['KEY', 'CREDITCARD']",38.930282,[],True,31307,0825180e-1f3f-11e7-bf6b-3863bb334450,15,42,False,151,-77.055599,classic,False,https://dc.lft.to/lastmile_qr_scan,https://dc.lft.to/lastmile_qr_scan,18:56:47
141,152,Anacostia Ave & Benning Rd NE / River Terrace ,"['KEY', 'CREDITCARD']",38.896544,[],True,31708,082518eb-1f3f-11e7-bf6b-3863bb334450,15,42,False,152,-76.96012,classic,False,https://dc.lft.to/lastmile_qr_scan,https://dc.lft.to/lastmile_qr_scan,18:56:47
142,153,M St & Pennsylvania Ave NW,"['KEY', 'CREDITCARD']",38.905126,[],True,31246,08251984-1f3f-11e7-bf6b-3863bb334450,19,42,False,153,-77.056887,classic,False,https://dc.lft.to/lastmile_qr_scan,https://dc.lft.to/lastmile_qr_scan,18:56:47
143,154,15th St & Massachusetts Ave SE,"['KEY', 'CREDITCARD']",38.88732,[],True,31626,08251a1b-1f3f-11e7-bf6b-3863bb334450,15,42,False,154,-76.983569,classic,False,https://dc.lft.to/lastmile_qr_scan,https://dc.lft.to/lastmile_qr_scan,18:56:47
144,155,Congress Heights Metro,"['KEY', 'CREDITCARD']",38.844711,[],True,31806,08251aba-1f3f-11e7-bf6b-3863bb334450,15,42,False,155,-76.987823,classic,False,https://dc.lft.to/lastmile_qr_scan,https://dc.lft.to/lastmile_qr_scan,18:56:47
145,156,N Quincy St & Glebe Rd,"['KEY', 'CREDITCARD']",38.876393,[],True,31035,08251bba-1f3f-11e7-bf6b-3863bb334450,12,41,False,156,-77.107735,classic,False,https://dc.lft.to/lastmile_qr_scan,https://dc.lft.to/lastmile_qr_scan,18:56:47
146,157,Barcroft Community Center,"['KEY', 'CREDITCARD']",38.85033657788445,[],True,31033,08251c45-1f3f-11e7-bf6b-3863bb334450,11,41,False,157,-77.1009886264801,classic,False,https://dc.lft.to/lastmile_qr_scan,https://dc.lft.to/lastmile_qr_scan,18:56:47
147,158,N Veitch St & 20th St N,"['KEY', 'CREDITCARD']",38.896923,[],True,31029,08251cd1-1f3f-11e7-bf6b-3863bb334450,15,41,False,158,-77.086502,classic,False,https://dc.lft.to/lastmile_qr_scan,https://dc.lft.to/lastmile_qr_scan,18:56:47
148,159,10th & K St NW,"['KEY', 'CREDITCARD']",38.9024,[],True,31263,08251d5a-1f3f-11e7-bf6b-3863bb334450,23,42,False,159,-77.02622,classic,False,https://dc.lft.to/lastmile_qr_scan,https://dc.lft.to/lastmile_qr_scan,18:56:47
149,160,Fairfax Dr & Wilson Blvd,"['KEY', 'CREDITCARD']",38.885801,[],True,31023,08251ded-1f3f-11e7-bf6b-3863bb334450,11,41,False,160,-77.097745,classic,False,https://dc.lft.to/lastmile_qr_scan,https://dc.lft.to/lastmile_qr_scan,18:56:47
150,161,Wilson Blvd & N Quinn St,"['KEY', 'CREDITCARD']",38.893993,[],True,31027,08251e7d-1f3f-11e7-bf6b-3863bb334450,17,41,False,161,-77.07857,classic,False,https://dc.lft.to/lastmile_qr_scan,https://dc.lft.to/lastmile_qr_scan,18:56:47
151,162,1st & K St SE,"['KEY', 'CREDITCARD']",38.878854378063295,[],True,31628,08251f03-1f3f-11e7-bf6b-3863bb334450,15,42,False,162,-77.00572729110718,classic,False,https://dc.lft.to/lastmile_qr_scan,https://dc.lft.to/lastmile_qr_scan,18:56:47
152,163,39th & Calvert St NW / Stoddert,"['KEY', 'CREDITCARD']",38.922649,[],True,31306,08251f93-1f3f-11e7-bf6b-3863bb334450,19,42,False,163,-77.077271,classic,False,https://dc.lft.to/lastmile_qr_scan,https://dc.lft.to/lastmile_qr_scan,18:56:47
153,164,1st & Washington Hospital Center NW,"['KEY', 'CREDITCARD']",38.928743,[],True,31507,0825201c-1f3f-11e7-bf6b-3863bb334450,15,42,False,164,-77.012457,classic,False,https://dc.lft.to/lastmile_qr_scan,https://dc.lft.to/lastmile_qr_scan,18:56:47
154,165,Virginia Square Metro / Monroe St & 9th St N,"['KEY', 'CREDITCARD']",38.882788,[],True,31024,082520aa-1f3f-11e7-bf6b-3863bb334450,19,41,False,165,-77.103148,classic,False,https://dc.lft.to/lastmile_qr_scan,https://dc.lft.to/lastmile_qr_scan,18:56:47
155,166,Central Library / Quincy St & 10th St N,"['KEY', 'CREDITCARD']",38.88397,[],True,31025,0825213e-1f3f-11e7-bf6b-3863bb334450,11,41,False,166,-77.10783,classic,False,https://dc.lft.to/lastmile_qr_scan,https://dc.lft.to/lastmile_qr_scan,18:56:47
156,167,Washington Blvd & 10th St N,"['KEY', 'CREDITCARD']",38.884734,[],True,31026,082521d3-1f3f-11e7-bf6b-3863bb334450,15,41,False,167,-77.093485,classic,False,https://dc.lft.to/lastmile_qr_scan,https://dc.lft.to/lastmile_qr_scan,18:56:47
157,168,Jefferson Dr & 14th St SW,"['KEY', 'CREDITCARD']",38.8885525,[],True,31247,08252260-1f3f-11e7-bf6b-3863bb334450,23,42,False,168,-77.032427,classic,False,https://dc.lft.to/lastmile_qr_scan,https://dc.lft.to/lastmile_qr_scan,18:56:47
158,169,Smithsonian-National Mall / Jefferson Dr & 12th St SW,"['KEY', 'CREDITCARD']",38.888774,[],True,31248,082522f0-1f3f-11e7-bf6b-3863bb334450,35,42,False,169,-77.028694,classic,False,https://dc.lft.to/lastmile_qr_scan,https://dc.lft.to/lastmile_qr_scan,18:56:47
159,170,George Mason Dr & Wilson Blvd,"['KEY', 'CREDITCARD']",38.87887,[],True,31036,08252387-1f3f-11e7-bf6b-3863bb334450,15,41,False,170,-77.1207,classic,False,https://dc.lft.to/lastmile_qr_scan,https://dc.lft.to/lastmile_qr_scan,18:56:47
160,171,6th St & Indiana Ave NW,"['KEY', 'CREDITCARD']",38.894573,[],True,31264,08252414-1f3f-11e7-bf6b-3863bb334450,19,42,False,171,-77.01994,classic,False,https://dc.lft.to/lastmile_qr_scan,https://dc.lft.to/lastmile_qr_scan,18:56:47
161,172,N Veitch St & Key Blvd,"['KEY', 'CREDITCARD']",38.893237,[],True,31028,082524a2-1f3f-11e7-bf6b-3863bb334450,11,41,False,172,-77.086063,classic,False,https://dc.lft.to/lastmile_qr_scan,https://dc.lft.to/lastmile_qr_scan,18:56:47
162,173,Langston Blvd & N Adams St,"['KEY', 'CREDITCARD']",38.89593,[],True,31030,08252530-1f3f-11e7-bf6b-3863bb334450,19,41,False,173,-77.089006,classic,False,https://dc.lft.to/lastmile_qr_scan,https://dc.lft.to/lastmile_qr_scan,18:56:47
163,174,15th St & N Scott St,"['KEY', 'CREDITCARD']",38.89054,[],True,31031,082525bb-1f3f-11e7-bf6b-3863bb334450,15,41,False,174,-77.08095,classic,False,https://dc.lft.to/lastmile_qr_scan,https://dc.lft.to/lastmile_qr_scan,18:56:47
164,175,Washington Blvd & 7th St N,"['KEY', 'CREDITCARD']",38.88081,[],True,31032,08252645-1f3f-11e7-bf6b-3863bb334450,11,41,False,175,-77.090792,classic,False,https://dc.lft.to/lastmile_qr_scan,https://dc.lft.to/lastmile_qr_scan,18:56:47
165,176,Ballston Metro / Stuart St & 9th St N,"['KEY', 'CREDITCARD']",38.881044,[],True,31037,082526d1-1f3f-11e7-bf6b-3863bb334450,23,41,False,176,-77.111768,classic,False,https://dc.lft.to/lastmile_qr_scan,https://dc.lft.to/lastmile_qr_scan,18:56:47
166,177,Fairfax Dr & N Randolph St,"['KEY', 'CREDITCARD']",38.882629,[],True,31034,0825275b-1f3f-11e7-bf6b-3863bb334450,15,41,False,177,-77.109366,classic,False,https://dc.lft.to/lastmile_qr_scan,https://dc.lft.to/lastmile_qr_scan,18:56:47
167,178,Jefferson Memorial,"['KEY', 'CREDITCARD']",38.879819,[],True,31249,082527e7-1f3f-11e7-bf6b-3863bb334450,23,42,False,178,-77.037413,classic,False,https://dc.lft.to/lastmile_qr_scan,https://dc.lft.to/lastmile_qr_scan,18:56:47
168,179,Good Hope Rd & 14th St SE,"['KEY', 'CREDITCARD']",38.866611,[],True,31803,08252874-1f3f-11e7-bf6b-3863bb334450,15,42,False,179,-76.985238,classic,False,https://dc.lft.to/lastmile_qr_scan,https://dc.lft.to/lastmile_qr_scan,18:56:47
169,180,Glebe Rd & 11th St N,"['KEY', 'CREDITCARD']",38.883921,[],True,31038,082528fb-1f3f-11e7-bf6b-3863bb334450,11,41,False,180,-77.116817,classic,False,https://dc.lft.to/lastmile_qr_scan,https://dc.lft.to/lastmile_qr_scan,18:56:47
170,181,Wilson Blvd & N Quincy St,"['KEY', 'CREDITCARD']",38.880012,[],True,31039,08252a00-1f3f-11e7-bf6b-3863bb334450,15,41,False,181,-77.107854,classic,False,https://dc.lft.to/lastmile_qr_scan,https://dc.lft.to/lastmile_qr_scan,18:56:47
171,182,GMU / Fairfax Dr & Kenmore St,"['KEY', 'CREDITCARD']",38.884616,[],True,31040,08252a92-1f3f-11e7-bf6b-3863bb334450,11,41,False,182,-77.10108,classic,False,https://dc.lft.to/lastmile_qr_scan,https://dc.lft.to/lastmile_qr_scan,18:56:47
172,183,Gallaudet / 8th St & Florida Ave NE,"['KEY', 'CREDITCARD']",38.90509,[],True,31508,08252b28-1f3f-11e7-bf6b-3863bb334450,19,42,False,183,-76.9941,classic,False,https://dc.lft.to/lastmile_qr_scan,https://dc.lft.to/lastmile_qr_scan,18:56:47
173,185,20th & L St NW,"['KEY', 'CREDITCARD']",38.903584,[],True,31250,08252c4a-1f3f-11e7-bf6b-3863bb334450,19,42,False,185,-77.044789,classic,False,https://dc.lft.to/lastmile_qr_scan,https://dc.lft.to/lastmile_qr_scan,18:56:47
174,186,12th & L St NW,"['KEY', 'CREDITCARD']",38.903819,[],True,31251,082537e4-1f3f-11e7-bf6b-3863bb334450,19,42,False,186,-77.0284,classic,False,https://dc.lft.to/lastmile_qr_scan,https://dc.lft.to/lastmile_qr_scan,18:56:47
175,187,21st St & Pennsylvania Ave NW,"['KEY', 'CREDITCARD']",38.901539,[],True,31252,0825388d-1f3f-11e7-bf6b-3863bb334450,19,42,False,187,-77.046564,classic,False,https://dc.lft.to/lastmile_qr_scan,https://dc.lft.to/lastmile_qr_scan,18:56:47
176,188,19th & K St NW,"['KEY', 'CREDITCARD']",38.902204,[],True,31253,08253908-1f3f-11e7-bf6b-3863bb334450,23,42,False,188,-77.04337,classic,False,https://dc.lft.to/lastmile_qr_scan,https://dc.lft.to/lastmile_qr_scan,18:56:47
177,189,Prince St & Union St,"['KEY', 'CREDITCARD']",38.803124,[],True,31041,08253976-1f3f-11e7-bf6b-3863bb334450,19,40,False,189,-77.040363,classic,False,https://dc.lft.to/lastmile_qr_scan,https://dc.lft.to/lastmile_qr_scan,18:56:47
178,190,Market Square / King St & Royal St,"['KEY', 'CREDITCARD']",38.804718,[],True,31042,082539e0-1f3f-11e7-bf6b-3863bb334450,15,40,False,190,-77.043363,classic,False,https://dc.lft.to/lastmile_qr_scan,https://dc.lft.to/lastmile_qr_scan,18:56:47
179,191,St Asaph & Pendleton St,"['KEY', 'CREDITCARD']",38.81074147938705,[],True,31043,08253a4b-1f3f-11e7-bf6b-3863bb334450,15,40,False,191,-77.0446327328682,classic,False,https://dc.lft.to/lastmile_qr_scan,https://dc.lft.to/lastmile_qr_scan,18:56:47
180,192,King St & Patrick St,"['KEY', 'CREDITCARD']",38.805317,[],True,31044,08253ab7-1f3f-11e7-bf6b-3863bb334450,15,40,False,192,-77.049883,classic,False,https://dc.lft.to/lastmile_qr_scan,https://dc.lft.to/lastmile_qr_scan,18:56:47
181,193,15th & K St NW,"['KEY', 'CREDITCARD']",38.902,[],True,31254,08253b2b-1f3f-11e7-bf6b-3863bb334450,27,42,False,193,-77.03353,classic,False,https://dc.lft.to/lastmile_qr_scan,https://dc.lft.to/lastmile_qr_scan,18:56:47
182,194,Commerce St & Fayette St,"['KEY', 'CREDITCARD']",38.805648,[],True,31045,08253b95-1f3f-11e7-bf6b-3863bb334450,15,40,False,194,-77.05293,classic,False,https://dc.lft.to/lastmile_qr_scan,https://dc.lft.to/lastmile_qr_scan,18:56:47
183,195,Henry St & Pendleton St,"['KEY', 'CREDITCARD']",38.811456,[],True,31046,08253c00-1f3f-11e7-bf6b-3863bb334450,17,40,False,195,-77.050276,classic,False,https://dc.lft.to/lastmile_qr_scan,https://dc.lft.to/lastmile_qr_scan,18:56:47
184,196,Braddock Rd Metro North,"['KEY', 'CREDITCARD']",38.814577,[],True,31047,08253c6b-1f3f-11e7-bf6b-3863bb334450,29,40,False,196,-77.052808,classic,False,https://dc.lft.to/lastmile_qr_scan,https://dc.lft.to/lastmile_qr_scan,18:56:47
185,197,King St Metro South,"['KEY', 'CREDITCARD']",38.80576284873485,[],True,31048,08253cdb-1f3f-11e7-bf6b-3863bb334450,23,40,False,197,-77.060626745224,classic,False,https://dc.lft.to/lastmile_qr_scan,https://dc.lft.to/lastmile_qr_scan,18:56:47
186,198,24th & N St NW,"['KEY', 'CREDITCARD']",38.9066,[],True,31255,08253e02-1f3f-11e7-bf6b-3863bb334450,15,42,False,198,-77.05152,classic,False,https://dc.lft.to/lastmile_qr_scan,https://dc.lft.to/lastmile_qr_scan,18:56:47
187,199,10th & E St NW,"['KEY', 'CREDITCARD']",38.895914,[],True,31256,08253e7e-1f3f-11e7-bf6b-3863bb334450,15,42,False,199,-77.026064,classic,False,https://dc.lft.to/lastmile_qr_scan,https://dc.lft.to/lastmile_qr_scan,18:56:47
188,200,22nd & I St NW / Foggy Bottom,"['KEY', 'CREDITCARD']",38.90088,[],True,31257,08254037-1f3f-11e7-bf6b-3863bb334450,15,42,False,200,-77.048911,classic,False,https://dc.lft.to/lastmile_qr_scan,https://dc.lft.to/lastmile_qr_scan,18:56:47
189,201,Utah St & 11th St N,"['KEY', 'CREDITCARD']",38.883669,[],True,31049,082540b2-1f3f-11e7-bf6b-3863bb334450,11,41,False,201,-77.113905,classic,False,https://dc.lft.to/lastmile_qr_scan,https://dc.lft.to/lastmile_qr_scan,18:56:47
190,202,Barton St & 10th St N,"['KEY', 'CREDITCARD']",38.884961,[],True,31050,08254123-1f3f-11e7-bf6b-3863bb334450,11,41,False,202,-77.08777,classic,False,https://dc.lft.to/lastmile_qr_scan,https://dc.lft.to/lastmile_qr_scan,18:56:47
191,203,Arlington Blvd & N Queen St,"['KEY', 'CREDITCARD']",38.889365,[],True,31051,08254215-1f3f-11e7-bf6b-3863bb334450,11,41,False,203,-77.077294,classic,False,https://dc.lft.to/lastmile_qr_scan,https://dc.lft.to/lastmile_qr_scan,18:56:47
192,204,Lincoln Memorial,"['KEY', 'CREDITCARD']",38.888255,[],True,31258,08254284-1f3f-11e7-bf6b-3863bb334450,25,42,False,204,-77.0494365,classic,False,https://dc.lft.to/lastmile_qr_scan,https://dc.lft.to/lastmile_qr_scan,18:56:47
193,206,20th St & Virginia Ave NW,"['KEY', 'CREDITCARD']",38.894722,[],True,31259,082543d4-1f3f-11e7-bf6b-3863bb334450,15,42,False,206,-77.045128,classic,False,https://dc.lft.to/lastmile_qr_scan,https://dc.lft.to/lastmile_qr_scan,18:56:47
194,207,5th St & Massachusetts Ave NW,"['KEY', 'CREDITCARD']",38.90093,[],True,31265,08254442-1f3f-11e7-bf6b-3863bb334450,19,42,False,207,-77.018677,classic,False,https://dc.lft.to/lastmile_qr_scan,https://dc.lft.to/lastmile_qr_scan,18:56:47
195,208,39th & Veazey St NW,"['KEY', 'CREDITCARD']",38.943837,[],True,31308,082544b7-1f3f-11e7-bf6b-3863bb334450,15,42,False,208,-77.077078,classic,False,https://dc.lft.to/lastmile_qr_scan,https://dc.lft.to/lastmile_qr_scan,18:56:47
196,209,Fessenden St & Wisconsin Ave NW,"['KEY', 'CREDITCARD']",38.954812,[],True,31309,08254529-1f3f-11e7-bf6b-3863bb334450,15,42,False,209,-77.082426,classic,False,https://dc.lft.to/lastmile_qr_scan,https://dc.lft.to/lastmile_qr_scan,18:56:47
197,210,3rd & M St NE,"['KEY', 'CREDITCARD']",38.905469714943266,[],True,31627,0825459a-1f3f-11e7-bf6b-3863bb334450,23,42,False,210,-77.0021304488182,classic,False,https://dc.lft.to/lastmile_qr_scan,https://dc.lft.to/lastmile_qr_scan,18:56:47
198,211,Columbia Pike & S Courthouse Rd,"['KEY', 'CREDITCARD']",38.863833,[],True,31053,0825460b-1f3f-11e7-bf6b-3863bb334450,15,41,False,211,-77.080319,classic,False,https://dc.lft.to/lastmile_qr_scan,https://dc.lft.to/lastmile_qr_scan,18:56:47
199,212,Wakefield High School,"['KEY', 'CREDITCARD']",38.847129045742605,[],True,31054,0825467b-1f3f-11e7-bf6b-3863bb334450,11,41,False,212,-77.1125502884388,classic,False,https://dc.lft.to/lastmile_qr_scan,https://dc.lft.to/lastmile_qr_scan,18:56:47
200,213,28th St & S Meade St,"['KEY', 'CREDITCARD']",38.846222,[],True,31055,082546fc-1f3f-11e7-bf6b-3863bb334450,15,41,False,213,-77.069275,classic,False,https://dc.lft.to/lastmile_qr_scan,https://dc.lft.to/lastmile_qr_scan,18:56:47
201,214,18th St & Wyoming Ave NW,"['KEY', 'CREDITCARD']",38.918809,[],True,31114,08254770-1f3f-11e7-bf6b-3863bb334450,23,42,False,214,-77.041571,classic,False,https://dc.lft.to/lastmile_qr_scan,https://dc.lft.to/lastmile_qr_scan,18:56:47
202,215,5th & Kennedy St NW,"['KEY', 'CREDITCARD']",38.956555547721955,[],True,31403,082547de-1f3f-11e7-bf6b-3863bb334450,15,42,False,215,-77.0198142528534,classic,False,https://dc.lft.to/lastmile_qr_scan,https://dc.lft.to/lastmile_qr_scan,18:56:47
203,216,Georgia Ave & Emerson St NW,"['KEY', 'CREDITCARD']",38.949662,[],True,31405,082548ce-1f3f-11e7-bf6b-3863bb334450,19,42,False,216,-77.027333,classic,False,https://dc.lft.to/lastmile_qr_scan,https://dc.lft.to/lastmile_qr_scan,18:56:47
204,217,14th & Upshur St NW,"['KEY', 'CREDITCARD']",38.942475355602845,[],True,31406,08254943-1f3f-11e7-bf6b-3863bb334450,19,42,False,217,-77.03267812728882,classic,False,https://dc.lft.to/lastmile_qr_scan,https://dc.lft.to/lastmile_qr_scan,18:56:47
205,218,14th St & Colorado Ave NW,"['KEY', 'CREDITCARD']",38.956432,[],True,31407,082549b0-1f3f-11e7-bf6b-3863bb334450,19,42,False,218,-77.032947,classic,False,https://dc.lft.to/lastmile_qr_scan,https://dc.lft.to/lastmile_qr_scan,18:56:47
206,219,Troy St & 26th St S,"['KEY', 'CREDITCARD']",38.847977,[],True,31056,08254a1e-1f3f-11e7-bf6b-3863bb334450,11,41,False,219,-77.075104,classic,False,https://dc.lft.to/lastmile_qr_scan,https://dc.lft.to/lastmile_qr_scan,18:56:47
207,220,Four Mile Run Dr & S Shirlington Rd,"['KEY', 'CREDITCARD']",38.8444,[],True,31057,08254a91-1f3f-11e7-bf6b-3863bb334450,11,41,False,220,-77.085931,classic,False,https://dc.lft.to/lastmile_qr_scan,https://dc.lft.to/lastmile_qr_scan,18:56:47
208,221,Columbia Pike & S Oakland St,"['KEY', 'CREDITCARD']",38.860789,[],True,31058,08254c82-1f3f-11e7-bf6b-3863bb334450,11,41,False,221,-77.09586,classic,False,https://dc.lft.to/lastmile_qr_scan,https://dc.lft.to/lastmile_qr_scan,18:56:47
209,222,Four Mile Run Dr & S Walter Reed Dr,"['KEY', 'CREDITCARD']",38.84736,[],True,31059,08254d7e-1f3f-11e7-bf6b-3863bb334450,11,41,False,222,-77.095431,classic,False,https://dc.lft.to/lastmile_qr_scan,https://dc.lft.to/lastmile_qr_scan,18:56:47
210,223,S Arlington Mill Dr & Campbell Ave,"['KEY', 'CREDITCARD']",38.84232,[],True,31060,08254dee-1f3f-11e7-bf6b-3863bb334450,15,41,False,223,-77.089555,classic,False,https://dc.lft.to/lastmile_qr_scan,https://dc.lft.to/lastmile_qr_scan,18:56:47
211,224,Kenmore St & 24th St S,"['KEY', 'CREDITCARD']",38.848454,[],True,31061,08254e55-1f3f-11e7-bf6b-3863bb334450,11,41,False,224,-77.084918,classic,False,https://dc.lft.to/lastmile_qr_scan,https://dc.lft.to/lastmile_qr_scan,18:56:47
212,225,13th St & Eastern Ave,"['KEY', 'CREDITCARD']",38.987,[],True,32006,08254ebb-1f3f-11e7-bf6b-3863bb334450,15,44,False,225,-77.029417,classic,False,https://dc.lft.to/lastmile_qr_scan,https://dc.lft.to/lastmile_qr_scan,18:56:47
213,226,Wisconsin Ave & O St NW,"['KEY', 'CREDITCARD']",38.90849,[],True,31312,08254f20-1f3f-11e7-bf6b-3863bb334450,19,42,False,226,-77.063586,classic,False,https://dc.lft.to/lastmile_qr_scan,https://dc.lft.to/lastmile_qr_scan,18:56:47
214,227,Roosevelt Island,"['KEY', 'CREDITCARD']",38.896553,[],True,31062,08254f8e-1f3f-11e7-bf6b-3863bb334450,17,41,False,227,-77.06714,classic,False,https://dc.lft.to/lastmile_qr_scan,https://dc.lft.to/lastmile_qr_scan,18:56:47
215,228,Connecticut & Nebraska Ave NW,"['KEY', 'CREDITCARD']",38.955016,[],True,31310,08254ffb-1f3f-11e7-bf6b-3863bb334450,23,42,False,228,-77.069956,classic,False,https://dc.lft.to/lastmile_qr_scan,https://dc.lft.to/lastmile_qr_scan,18:56:47
216,229,17th St & Massachusetts Ave NW,"['KEY', 'CREDITCARD']",38.908142,[],True,31267,08255063-1f3f-11e7-bf6b-3863bb334450,19,42,False,229,-77.038359,classic,False,https://dc.lft.to/lastmile_qr_scan,https://dc.lft.to/lastmile_qr_scan,18:56:47
217,230,15th & Euclid St NW,"['KEY', 'CREDITCARD']",38.92333,[],True,31117,0825525a-1f3f-11e7-bf6b-3863bb334450,15,42,False,230,-77.0352,classic,False,https://dc.lft.to/lastmile_qr_scan,https://dc.lft.to/lastmile_qr_scan,18:56:47
218,231,8th & East Capitol St NE,"['KEY', 'CREDITCARD']",38.889988,[],True,31629,082553a7-1f3f-11e7-bf6b-3863bb334450,11,42,False,231,-76.995193,classic,False,https://dc.lft.to/lastmile_qr_scan,https://dc.lft.to/lastmile_qr_scan,18:56:47
219,232,New Jersey Ave & R St NW,"['KEY', 'CREDITCARD']",38.912659,[],True,31509,08255427-1f3f-11e7-bf6b-3863bb334450,15,42,False,232,-77.017669,classic,False,https://dc.lft.to/lastmile_qr_scan,https://dc.lft.to/lastmile_qr_scan,18:56:47
220,233,15th & East Capitol St NE,"['KEY', 'CREDITCARD']",38.889908,[],True,31630,0825548f-1f3f-11e7-bf6b-3863bb334450,11,42,False,233,-76.983326,classic,False,https://dc.lft.to/lastmile_qr_scan,https://dc.lft.to/lastmile_qr_scan,18:56:47
221,234,8th & F St NE,"['KEY', 'CREDITCARD']",38.897274,[],True,31631,082554fb-1f3f-11e7-bf6b-3863bb334450,23,42,False,234,-76.994749,classic,False,https://dc.lft.to/lastmile_qr_scan,https://dc.lft.to/lastmile_qr_scan,18:56:47
222,235,18th St & Rhode Island Ave NE,"['KEY', 'CREDITCARD']",38.927095,[],True,31510,08255561-1f3f-11e7-bf6b-3863bb334450,15,42,False,235,-76.978924,classic,False,https://dc.lft.to/lastmile_qr_scan,https://dc.lft.to/lastmile_qr_scan,18:56:47
223,236,15th & F St NE,"['KEY', 'CREDITCARD']",38.897195,[],True,31632,0825610d-1f3f-11e7-bf6b-3863bb334450,19,42,False,236,-76.983575,classic,False,https://dc.lft.to/lastmile_qr_scan,https://dc.lft.to/lastmile_qr_scan,18:56:47
224,237,12th & Irving St NE,"['KEY', 'CREDITCARD']",38.928644,[],True,31511,0825619c-1f3f-11e7-bf6b-3863bb334450,15,42,False,237,-76.990955,classic,False,https://dc.lft.to/lastmile_qr_scan,https://dc.lft.to/lastmile_qr_scan,18:56:47
225,239,Alabama & MLK Ave SE,"['KEY', 'CREDITCARD']",38.84322988730829,[],True,31800,082564e2-1f3f-11e7-bf6b-3863bb334450,11,42,False,239,-76.99937582015991,classic,False,https://dc.lft.to/lastmile_qr_scan,https://dc.lft.to/lastmile_qr_scan,18:56:47
226,240,Pleasant St & MLK Ave SE,"['KEY', 'CREDITCARD']",38.863897,[],True,31807,08256549-1f3f-11e7-bf6b-3863bb334450,11,42,False,240,-76.990037,classic,False,https://dc.lft.to/lastmile_qr_scan,https://dc.lft.to/lastmile_qr_scan,18:56:47
227,241,Neal St & Trinidad Ave NE,"['KEY', 'CREDITCARD']",38.903732,[],True,31512,082565f9-1f3f-11e7-bf6b-3863bb334450,15,42,False,241,-76.987211,classic,False,https://dc.lft.to/lastmile_qr_scan,https://dc.lft.to/lastmile_qr_scan,18:56:47
228,242,12th & U St NW,"['KEY', 'CREDITCARD']",38.916787,[],True,31268,08256670-1f3f-11e7-bf6b-3863bb334450,31,42,False,242,-77.028139,classic,False,https://dc.lft.to/lastmile_qr_scan,https://dc.lft.to/lastmile_qr_scan,18:56:47
229,243,S George Mason & Four Mile Run Dr,"['KEY', 'CREDITCARD']",38.852248,[],True,31063,082566d7-1f3f-11e7-bf6b-3863bb334450,11,41,False,243,-77.105022,classic,False,https://dc.lft.to/lastmile_qr_scan,https://dc.lft.to/lastmile_qr_scan,18:56:47
230,244,Gravelly Point,"['KEY', 'CREDITCARD']",38.865029,[],True,31064,08256742-1f3f-11e7-bf6b-3863bb334450,17,41,False,244,-77.039511,classic,False,https://dc.lft.to/lastmile_qr_scan,https://dc.lft.to/lastmile_qr_scan,18:56:47
231,245,Pershing Dr & Wayne St,"['KEY', 'CREDITCARD']",38.880705,[],True,31065,0825697c-1f3f-11e7-bf6b-3863bb334450,11,41,False,245,-77.08596,classic,False,https://dc.lft.to/lastmile_qr_scan,https://dc.lft.to/lastmile_qr_scan,18:56:47
232,246,Columbia Pike & S Orme St,"['KEY', 'CREDITCARD']",38.867262,[],True,31066,082569e6-1f3f-11e7-bf6b-3863bb334450,11,41,False,246,-77.072315,classic,False,https://dc.lft.to/lastmile_qr_scan,https://dc.lft.to/lastmile_qr_scan,18:56:47
233,247,3rd St & Pennsylvania Ave SE,"['KEY', 'CREDITCARD']",38.887378,[],True,31269,08256a59-1f3f-11e7-bf6b-3863bb334450,15,42,False,247,-77.001955,classic,False,https://dc.lft.to/lastmile_qr_scan,https://dc.lft.to/lastmile_qr_scan,18:56:47
234,248,8th & D St NW,"['KEY', 'CREDITCARD']",38.894851,[],True,31270,08256ac9-1f3f-11e7-bf6b-3863bb334450,15,42,False,248,-77.02324,classic,False,https://dc.lft.to/lastmile_qr_scan,https://dc.lft.to/lastmile_qr_scan,18:56:47
235,249,3rd & Elm St NW,"['KEY', 'CREDITCARD']",38.917622,[],True,31118,08256b2e-1f3f-11e7-bf6b-3863bb334450,15,42,False,249,-77.01597,classic,False,https://dc.lft.to/lastmile_qr_scan,https://dc.lft.to/lastmile_qr_scan,18:56:47
236,250,Rhode Island Ave & V St NE,"['KEY', 'CREDITCARD']",38.918155,[],True,31513,08256b90-1f3f-11e7-bf6b-3863bb334450,19,42,False,250,-77.004746,classic,False,https://dc.lft.to/lastmile_qr_scan,https://dc.lft.to/lastmile_qr_scan,18:56:47
237,251,Constitution Ave & 2nd St NW/DOL,"['KEY', 'CREDITCARD']",38.892275,[],True,31271,08256d91-1f3f-11e7-bf6b-3863bb334450,27,42,False,251,-77.013917,classic,False,https://dc.lft.to/lastmile_qr_scan,https://dc.lft.to/lastmile_qr_scan,18:56:47
238,252,Washington & Independence Ave SW/HHS,"['KEY', 'CREDITCARD']",38.886978,[],True,31272,08256e11-1f3f-11e7-bf6b-3863bb334450,31,42,False,252,-77.013769,classic,False,https://dc.lft.to/lastmile_qr_scan,https://dc.lft.to/lastmile_qr_scan,18:56:47
239,253,Independence Ave & L'Enfant Plaza SW/DOE,"['KEY', 'CREDITCARD']",38.887312,[],True,31633,08256e7b-1f3f-11e7-bf6b-3863bb334450,15,42,False,253,-77.025762,classic,False,https://dc.lft.to/lastmile_qr_scan,https://dc.lft.to/lastmile_qr_scan,18:56:47
240,254,Hamlin & 7th St NE,"['KEY', 'CREDITCARD']",38.927497,[],True,31514,08256ee8-1f3f-11e7-bf6b-3863bb334450,15,42,False,254,-76.997194,classic,False,https://dc.lft.to/lastmile_qr_scan,https://dc.lft.to/lastmile_qr_scan,18:56:47
241,255,Columbia Pike & S Walter Reed Dr,"['KEY', 'CREDITCARD']",38.862478,[],True,31067,08256fcd-1f3f-11e7-bf6b-3863bb334450,12,41,False,255,-77.086599,classic,False,https://dc.lft.to/lastmile_qr_scan,https://dc.lft.to/lastmile_qr_scan,18:56:47
242,256,Arlington Mill Cmty Center / Columbia Pike & S Dinwiddie St,"['KEY', 'CREDITCARD']",38.856319,[],True,31068,08257239-1f3f-11e7-bf6b-3863bb334450,15,41,False,256,-77.11153,classic,False,https://dc.lft.to/lastmile_qr_scan,https://dc.lft.to/lastmile_qr_scan,18:56:47
243,257,Pershing Dr & N George Mason Dr,"['KEY', 'CREDITCARD']",38.871822,[],True,31069,082572b6-1f3f-11e7-bf6b-3863bb334450,11,41,False,257,-77.107906,classic,False,https://dc.lft.to/lastmile_qr_scan,https://dc.lft.to/lastmile_qr_scan,18:56:47
244,258,Fenton St & New York Ave ,"['KEY', 'CREDITCARD']",38.985404,[],True,32001,08257325-1f3f-11e7-bf6b-3863bb334450,15,44,False,258,-77.023082,classic,False,https://dc.lft.to/lastmile_qr_scan,https://dc.lft.to/lastmile_qr_scan,18:56:47
245,259,Bethesda Ave & Arlington Rd,"['KEY', 'CREDITCARD']",38.981103,[],True,32002,0825738d-1f3f-11e7-bf6b-3863bb334450,19,44,False,259,-77.097426,classic,False,https://dc.lft.to/lastmile_qr_scan,https://dc.lft.to/lastmile_qr_scan,18:56:47
246,260,Montgomery Ave & Waverly St ,"['KEY', 'CREDITCARD']",38.983838,[],True,32003,0825756e-1f3f-11e7-bf6b-3863bb334450,11,44,False,260,-77.09221,classic,False,https://dc.lft.to/lastmile_qr_scan,https://dc.lft.to/lastmile_qr_scan,18:56:47
247,261,Fallsgrove Blvd & Fallsgrove Dr,"['KEY', 'CREDITCARD']",39.096312,[],True,32004,0825762e-1f3f-11e7-bf6b-3863bb334450,19,43,False,261,-77.192672,classic,False,https://dc.lft.to/lastmile_qr_scan,https://dc.lft.to/lastmile_qr_scan,18:56:47
248,262,Traville Gateway Dr & Gudelsky Dr,"['KEY', 'CREDITCARD']",39.093783,[],True,32005,08257f71-1f3f-11e7-bf6b-3863bb334450,19,43,False,262,-77.202501,classic,False,https://dc.lft.to/lastmile_qr_scan,https://dc.lft.to/lastmile_qr_scan,18:56:47
249,263,Norfolk Ave & Fairmont St,"['KEY', 'CREDITCARD']",38.988562,[],True,32000,0825802a-1f3f-11e7-bf6b-3863bb334450,11,44,False,263,-77.096539,classic,False,https://dc.lft.to/lastmile_qr_scan,https://dc.lft.to/lastmile_qr_scan,18:56:47
250,264,E Montgomery Ave & Maryland Ave,"['KEY', 'CREDITCARD']",39.084125,[],True,32007,082582ff-1f3f-11e7-bf6b-3863bb334450,15,43,False,264,-77.151291,classic,False,https://dc.lft.to/lastmile_qr_scan,https://dc.lft.to/lastmile_qr_scan,18:56:47
251,265,Cordell & Norfolk Ave,"['KEY', 'CREDITCARD']",38.98954,[],True,32008,08258395-1f3f-11e7-bf6b-3863bb334450,11,44,False,265,-77.098029,classic,False,https://dc.lft.to/lastmile_qr_scan,https://dc.lft.to/lastmile_qr_scan,18:56:47
252,266,Frederick Ave & Horners Ln,"['KEY', 'CREDITCARD']",39.094772,[],True,32009,08258475-1f3f-11e7-bf6b-3863bb334450,9,43,False,266,-77.145213,classic,False,https://dc.lft.to/lastmile_qr_scan,https://dc.lft.to/lastmile_qr_scan,18:56:47
253,267,Philadelphia & Maple Ave,"['KEY', 'CREDITCARD']",38.98128,[],True,32010,082586f1-1f3f-11e7-bf6b-3863bb334450,15,44,False,267,-77.011336,classic,False,https://dc.lft.to/lastmile_qr_scan,https://dc.lft.to/lastmile_qr_scan,18:56:47
254,268,Maple & Ritchie Ave,"['KEY', 'CREDITCARD']",38.983627,[],True,32011,08258785-1f3f-11e7-bf6b-3863bb334450,19,44,False,268,-77.006311,classic,False,https://dc.lft.to/lastmile_qr_scan,https://dc.lft.to/lastmile_qr_scan,18:56:47
255,269,Silver Spring Metro / Colesville Rd & Wayne Ave,"['KEY', 'CREDITCARD']",38.995256441231696,[],True,32012,0825881b-1f3f-11e7-bf6b-3863bb334450,19,44,False,269,-77.02912420034409,classic,False,https://dc.lft.to/lastmile_qr_scan,https://dc.lft.to/lastmile_qr_scan,18:56:47
256,270,Montgomery & East Ln,"['KEY', 'CREDITCARD']",38.983525,[],True,32013,08258a6c-1f3f-11e7-bf6b-3863bb334450,11,44,False,270,-77.095367,classic,False,https://dc.lft.to/lastmile_qr_scan,https://dc.lft.to/lastmile_qr_scan,18:56:47
257,271,Friendship Hts Metro / Wisconsin Ave & Wisconsin Cir,"['KEY', 'CREDITCARD']",38.961763,[],True,32014,08258b3f-1f3f-11e7-bf6b-3863bb334450,19,44,False,271,-77.085998,classic,False,https://dc.lft.to/lastmile_qr_scan,https://dc.lft.to/lastmile_qr_scan,18:56:47
258,272,14th & Belmont St NW,"['KEY', 'CREDITCARD']",38.921074,[],True,31119,08258d95-1f3f-11e7-bf6b-3863bb334450,15,42,False,272,-77.031887,classic,False,https://dc.lft.to/lastmile_qr_scan,https://dc.lft.to/lastmile_qr_scan,18:56:47
259,273,3rd & Tingey St SE,"['KEY', 'CREDITCARD']",38.87501,[],True,31634,08258e2d-1f3f-11e7-bf6b-3863bb334450,19,42,False,273,-77.0024,classic,False,https://dc.lft.to/lastmile_qr_scan,https://dc.lft.to/lastmile_qr_scan,18:56:47
260,274,10th & Florida Ave NW,"['KEY', 'CREDITCARD']",38.920387,[],True,31120,08259009-1f3f-11e7-bf6b-3863bb334450,19,42,False,274,-77.025672,classic,False,https://dc.lft.to/lastmile_qr_scan,https://dc.lft.to/lastmile_qr_scan,18:56:47
261,275,Potomac Ave & 8th St SE,"['KEY', 'CREDITCARD']",38.876737,[],True,31635,08259091-1f3f-11e7-bf6b-3863bb334450,15,42,False,275,-76.994468,classic,False,https://dc.lft.to/lastmile_qr_scan,https://dc.lft.to/lastmile_qr_scan,18:56:47
262,277,Fallsgrove Dr & W Montgomery Ave,"['KEY', 'CREDITCARD']",39.099376,[],True,32016,08259347-1f3f-11e7-bf6b-3863bb334450,15,43,False,277,-77.188014,classic,False,https://dc.lft.to/lastmile_qr_scan,https://dc.lft.to/lastmile_qr_scan,18:56:47
263,278,Monroe St & Monroe Pl,"['KEY', 'CREDITCARD']",39.083673,[],True,32017,082595a1-1f3f-11e7-bf6b-3863bb334450,15,43,False,278,-77.149162,classic,False,https://dc.lft.to/lastmile_qr_scan,https://dc.lft.to/lastmile_qr_scan,18:56:47
264,279,Needwood Rd & Eagles Head Ct,"['KEY', 'CREDITCARD']",39.123513,[],True,32018,0825962a-1f3f-11e7-bf6b-3863bb334450,15,43,False,279,-77.15741,classic,False,https://dc.lft.to/lastmile_qr_scan,https://dc.lft.to/lastmile_qr_scan,18:56:47
265,280,East West Hwy & Blair Mill Rd,"['KEY', 'CREDITCARD']",38.990249,[],True,32019,08259804-1f3f-11e7-bf6b-3863bb334450,15,44,False,280,-77.02935,classic,False,https://dc.lft.to/lastmile_qr_scan,https://dc.lft.to/lastmile_qr_scan,18:56:47
266,282,47th & Elm St,"['KEY', 'CREDITCARD']",38.982456,[],True,32021,08259c89-1f3f-11e7-bf6b-3863bb334450,15,44,False,282,-77.091991,classic,False,https://dc.lft.to/lastmile_qr_scan,https://dc.lft.to/lastmile_qr_scan,18:56:47
267,283,Dennis Ave & Amherst Ave,"['KEY', 'CREDITCARD']",39.02538719623632,[],True,32022,08259e6f-1f3f-11e7-bf6b-3863bb334450,15,44,False,283,-77.04456299543381,classic,False,https://dc.lft.to/lastmile_qr_scan,https://dc.lft.to/lastmile_qr_scan,18:56:47
268,284,Montgomery College / W Campus Dr & Mannakee St,"['KEY', 'CREDITCARD']",39.095661,[],True,32023,0825aa94-1f3f-11e7-bf6b-3863bb334450,21,43,False,284,-77.159048,classic,False,https://dc.lft.to/lastmile_qr_scan,https://dc.lft.to/lastmile_qr_scan,18:56:47
269,285,Fenton St & Gist Ave,"['KEY', 'CREDITCARD']",38.989724,[],True,32024,0825ac97-1f3f-11e7-bf6b-3863bb334450,11,44,False,285,-77.023854,classic,False,https://dc.lft.to/lastmile_qr_scan,https://dc.lft.to/lastmile_qr_scan,18:56:47
270,286,Carroll & Westmoreland Ave,"['KEY', 'CREDITCARD']",38.975,[],True,32025,0825b10b-1f3f-11e7-bf6b-3863bb334450,15,44,False,286,-77.01121,classic,False,https://dc.lft.to/lastmile_qr_scan,https://dc.lft.to/lastmile_qr_scan,18:56:47
271,287,Carroll & Ethan Allen Ave,"['KEY', 'CREDITCARD']",38.977933,[],True,32026,0825b1a2-1f3f-11e7-bf6b-3863bb334450,15,44,False,287,-77.006472,classic,False,https://dc.lft.to/lastmile_qr_scan,https://dc.lft.to/lastmile_qr_scan,18:56:47
272,288,Battery Ln & Trolley Trail,"['KEY', 'CREDITCARD']",38.992375,[],True,32027,0825b213-1f3f-11e7-bf6b-3863bb334450,15,44,False,288,-77.100104,classic,False,https://dc.lft.to/lastmile_qr_scan,https://dc.lft.to/lastmile_qr_scan,18:56:47
273,289,Norfolk & Rugby Ave,"['KEY', 'CREDITCARD']",38.990639,[],True,32028,0825b27e-1f3f-11e7-bf6b-3863bb334450,11,44,False,289,-77.100239,classic,False,https://dc.lft.to/lastmile_qr_scan,https://dc.lft.to/lastmile_qr_scan,18:56:47
274,290,Offutt Ln & Chevy Chase Dr,"['KEY', 'CREDITCARD']",38.977093,[],True,32029,0825b2e7-1f3f-11e7-bf6b-3863bb334450,11,44,False,290,-77.094589,classic,False,https://dc.lft.to/lastmile_qr_scan,https://dc.lft.to/lastmile_qr_scan,18:56:47
275,293,Fleet St & Ritchie Pkwy,"['KEY', 'CREDITCARD']",39.076331,[],True,32032,0825b42a-1f3f-11e7-bf6b-3863bb334450,15,43,False,293,-77.141378,classic,False,https://dc.lft.to/lastmile_qr_scan,https://dc.lft.to/lastmile_qr_scan,18:56:47
276,294,Piccard & W Gude Dr,"['KEY', 'CREDITCARD']",39.102212,[],True,32033,0825b4c9-1f3f-11e7-bf6b-3863bb334450,19,43,False,294,-77.177091,classic,False,https://dc.lft.to/lastmile_qr_scan,https://dc.lft.to/lastmile_qr_scan,18:56:47
277,295,Silver Spring Transit Center - Top Level,"['KEY', 'CREDITCARD']",38.99403485060837,[],True,32034,0825b553-1f3f-11e7-bf6b-3863bb334450,15,44,False,295,-77.03037142753601,classic,False,https://dc.lft.to/lastmile_qr_scan,https://dc.lft.to/lastmile_qr_scan,18:56:47
278,296,Georgia Ave & Spring St,"['KEY', 'CREDITCARD']",38.999388,[],True,32035,0825b614-1f3f-11e7-bf6b-3863bb334450,11,44,False,296,-77.031555,classic,False,https://dc.lft.to/lastmile_qr_scan,https://dc.lft.to/lastmile_qr_scan,18:56:47
279,297,Fenton St & Ellsworth Dr ,"['KEY', 'CREDITCARD']",38.997033,[],True,32036,0825b6a9-1f3f-11e7-bf6b-3863bb334450,15,44,False,297,-77.025608,classic,False,https://dc.lft.to/lastmile_qr_scan,https://dc.lft.to/lastmile_qr_scan,18:56:47
280,298,King Farm Blvd & Pleasant Dr,"['KEY', 'CREDITCARD']",39.114688,[],True,32037,0825b738-1f3f-11e7-bf6b-3863bb334450,18,43,False,298,-77.171487,classic,False,https://dc.lft.to/lastmile_qr_scan,https://dc.lft.to/lastmile_qr_scan,18:56:47
281,299,King Farm Blvd & Piccard Dr,"['KEY', 'CREDITCARD']",39.110314,[],True,32038,0825b7cc-1f3f-11e7-bf6b-3863bb334450,15,43,False,299,-77.182669,classic,False,https://dc.lft.to/lastmile_qr_scan,https://dc.lft.to/lastmile_qr_scan,18:56:47
282,301,Calvert St & Woodley Pl NW,"['KEY', 'CREDITCARD']",38.923583,[],True,31121,0825b8f0-1f3f-11e7-bf6b-3863bb334450,19,42,False,301,-77.050046,classic,False,https://dc.lft.to/lastmile_qr_scan,https://dc.lft.to/lastmile_qr_scan,18:56:47
283,302,New Jersey Ave & N St NW/Dunbar HS,"['KEY', 'CREDITCARD']",38.90733256111448,[],True,31636,0825b983-1f3f-11e7-bf6b-3863bb334450,19,42,False,302,-77.01536044478416,classic,False,https://dc.lft.to/lastmile_qr_scan,https://dc.lft.to/lastmile_qr_scan,18:56:47
284,303,Nannie Helen Burroughs Ave & 49th St NE,"['KEY', 'CREDITCARD']",38.898536,[],True,31710,0825ba12-1f3f-11e7-bf6b-3863bb334450,11,42,False,303,-76.931862,classic,False,https://dc.lft.to/lastmile_qr_scan,https://dc.lft.to/lastmile_qr_scan,18:56:47
285,304,Deanwood Rec Center,"['KEY', 'CREDITCARD']",38.908473,[],True,31711,0825baa3-1f3f-11e7-bf6b-3863bb334450,15,42,False,304,-76.933099,classic,False,https://dc.lft.to/lastmile_qr_scan,https://dc.lft.to/lastmile_qr_scan,18:56:47
286,305,Hains Point/Buckeye & Ohio Dr SW,"['KEY', 'CREDITCARD']",38.878433,[],True,31273,0825bb32-1f3f-11e7-bf6b-3863bb334450,17,42,False,305,-77.03023,classic,False,https://dc.lft.to/lastmile_qr_scan,https://dc.lft.to/lastmile_qr_scan,18:56:47
287,306,Arlington Blvd & Fillmore St,"['KEY', 'CREDITCARD']",38.873755,[],True,31070,0825bbc6-1f3f-11e7-bf6b-3863bb334450,11,41,False,306,-77.089233,classic,False,https://dc.lft.to/lastmile_qr_scan,https://dc.lft.to/lastmile_qr_scan,18:56:47
288,307,Eads St & 12th St S,"['KEY', 'CREDITCARD']",38.862753,[],True,31071,0825bc56-1f3f-11e7-bf6b-3863bb334450,17,41,False,307,-77.05428,classic,False,https://dc.lft.to/lastmile_qr_scan,https://dc.lft.to/lastmile_qr_scan,18:56:47
289,308,Old Georgetown Rd & Southwick St,"['KEY', 'CREDITCARD']",38.999634,[],True,32039,0825bce9-1f3f-11e7-bf6b-3863bb334450,19,44,False,308,-77.109647,classic,False,https://dc.lft.to/lastmile_qr_scan,https://dc.lft.to/lastmile_qr_scan,18:56:47
290,309,Friendship Blvd & Willard Ave,"['KEY', 'CREDITCARD']",38.96115,[],True,32040,0825bd74-1f3f-11e7-bf6b-3863bb334450,19,44,False,309,-77.088659,classic,False,https://dc.lft.to/lastmile_qr_scan,https://dc.lft.to/lastmile_qr_scan,18:56:47
291,310,North Capitol St & G Pl NE,"['KEY', 'CREDITCARD']",38.899703,[],True,31637,0825be05-1f3f-11e7-bf6b-3863bb334450,19,42,False,310,-77.008911,classic,False,https://dc.lft.to/lastmile_qr_scan,https://dc.lft.to/lastmile_qr_scan,18:56:47
292,311,31st St & S Woodrow St,"['KEY', 'CREDITCARD']",38.8378458,[],True,31072,0825be94-1f3f-11e7-bf6b-3863bb334450,11,41,False,311,-77.0934784,classic,False,https://dc.lft.to/lastmile_qr_scan,https://dc.lft.to/lastmile_qr_scan,18:56:47
293,312,Washington Blvd & Walter Reed Dr ,"['KEY', 'CREDITCARD']",38.873219,[],True,31073,0825bf2b-1f3f-11e7-bf6b-3863bb334450,15,41,False,312,-77.082104,classic,False,https://dc.lft.to/lastmile_qr_scan,https://dc.lft.to/lastmile_qr_scan,18:56:47
294,313,TJ Cmty Ctr / 2nd St & S Old Glebe Rd,"['KEY', 'CREDITCARD']",38.869418,[],True,31074,0825bfcd-1f3f-11e7-bf6b-3863bb334450,15,41,False,313,-77.095596,classic,False,https://dc.lft.to/lastmile_qr_scan,https://dc.lft.to/lastmile_qr_scan,18:56:47
295,314,Connecticut Ave & Tilden St NW,"['KEY', 'CREDITCARD']",38.94113915653008,[],True,31313,0825c063-1f3f-11e7-bf6b-3863bb334450,15,42,False,314,-77.061977237463,classic,False,https://dc.lft.to/lastmile_qr_scan,https://dc.lft.to/lastmile_qr_scan,18:56:47
296,315,Medical Center Dr & Key West Ave,"['KEY', 'CREDITCARD']",39.103091,[],True,32041,0825df01-1f3f-11e7-bf6b-3863bb334450,15,43,False,315,-77.196442,classic,False,https://dc.lft.to/lastmile_qr_scan,https://dc.lft.to/lastmile_qr_scan,18:56:47
297,316,Shady Grove Hospital,"['KEY', 'CREDITCARD']",39.097636,[],True,32042,0825dffc-1f3f-11e7-bf6b-3863bb334450,19,43,False,316,-77.196636,classic,False,https://dc.lft.to/lastmile_qr_scan,https://dc.lft.to/lastmile_qr_scan,18:56:47
298,317,Veterans Pl & Pershing Dr ,"['KEY', 'CREDITCARD']",38.997445,[],True,32043,0825e0a1-1f3f-11e7-bf6b-3863bb334450,11,44,False,317,-77.023894,classic,False,https://dc.lft.to/lastmile_qr_scan,https://dc.lft.to/lastmile_qr_scan,18:56:47
299,318,Rockville Metro East,"['KEY', 'CREDITCARD']",39.085394,[],True,32044,0825e147-1f3f-11e7-bf6b-3863bb334450,13,43,False,318,-77.145803,classic,False,https://dc.lft.to/lastmile_qr_scan,https://dc.lft.to/lastmile_qr_scan,18:56:47
300,319,1st & H St NW,"['KEY', 'CREDITCARD']",38.900358,[],True,31638,0825e1e5-1f3f-11e7-bf6b-3863bb334450,15,42,False,319,-77.012108,classic,False,https://dc.lft.to/lastmile_qr_scan,https://dc.lft.to/lastmile_qr_scan,18:56:47
301,320,Fort Totten Metro,"['KEY', 'CREDITCARD']",38.952369,[],True,31515,0825e27a-1f3f-11e7-bf6b-3863bb334450,19,42,False,320,-77.002721,classic,False,https://dc.lft.to/lastmile_qr_scan,https://dc.lft.to/lastmile_qr_scan,18:56:47
302,321,Takoma Metro,"['KEY', 'CREDITCARD']",38.975219,[],True,31408,0825e31a-1f3f-11e7-bf6b-3863bb334450,19,42,False,321,-77.016855,classic,False,https://dc.lft.to/lastmile_qr_scan,https://dc.lft.to/lastmile_qr_scan,18:56:47
303,322,Rhode Island Ave Metro,"['KEY', 'CREDITCARD']",38.920682,[],True,31516,0825e3b0-1f3f-11e7-bf6b-3863bb334450,19,42,False,322,-76.995876,classic,False,https://dc.lft.to/lastmile_qr_scan,https://dc.lft.to/lastmile_qr_scan,18:56:47
304,323,Rolfe St & 9th St S,"['KEY', 'CREDITCARD']",38.866471,[],True,31075,0825e443-1f3f-11e7-bf6b-3863bb334450,11,41,False,323,-77.076131,classic,False,https://dc.lft.to/lastmile_qr_scan,https://dc.lft.to/lastmile_qr_scan,18:56:47
305,324,S Randolph St & Campbell Ave,"['KEY', 'CREDITCARD']",38.84065400672152,[],True,31076,0825e4d5-1f3f-11e7-bf6b-3863bb334450,15,41,False,324,-77.08865851163864,classic,False,https://dc.lft.to/lastmile_qr_scan,https://dc.lft.to/lastmile_qr_scan,18:56:47
306,325,Shady Grove Metro West,"['KEY', 'CREDITCARD']",39.119765,[],True,32045,0825e56c-1f3f-11e7-bf6b-3863bb334450,19,43,False,325,-77.166093,classic,False,https://dc.lft.to/lastmile_qr_scan,https://dc.lft.to/lastmile_qr_scan,18:56:47
307,326,River Rd & Landy Ln,"['KEY', 'CREDITCARD']",38.964992,[],True,32046,0825e5ff-1f3f-11e7-bf6b-3863bb334450,19,44,False,326,-77.103381,classic,False,https://dc.lft.to/lastmile_qr_scan,https://dc.lft.to/lastmile_qr_scan,18:56:47
308,327,Rockville Metro West,"['KEY', 'CREDITCARD']",39.084379,[],True,32047,0825f1f7-1f3f-11e7-bf6b-3863bb334450,19,43,False,327,-77.146866,classic,False,https://dc.lft.to/lastmile_qr_scan,https://dc.lft.to/lastmile_qr_scan,18:56:47
309,328,Bethesda Metro / Wisconsin Ave & Old Georgetown Rd,"['KEY', 'CREDITCARD']",38.984691,[],True,32048,0825f2b1-1f3f-11e7-bf6b-3863bb334450,12,44,False,328,-77.094537,classic,False,https://dc.lft.to/lastmile_qr_scan,https://dc.lft.to/lastmile_qr_scan,18:56:47
310,329,Iwo Jima Memorial / Meade & 14th St N,"['KEY', 'CREDITCARD']",38.88992,[],True,31077,0825f344-1f3f-11e7-bf6b-3863bb334450,19,41,False,329,-77.071301,classic,False,https://dc.lft.to/lastmile_qr_scan,https://dc.lft.to/lastmile_qr_scan,18:56:47
311,330,34th & Water St NW,"['KEY', 'CREDITCARD']",38.9037315,[],True,31314,0825f3d4-1f3f-11e7-bf6b-3863bb334450,19,42,False,330,-77.0675285,classic,False,https://dc.lft.to/lastmile_qr_scan,https://dc.lft.to/lastmile_qr_scan,18:56:47
312,331,Duke St & John Carlyle St,"['KEY', 'CREDITCARD']",38.804378,[],True,31081,0825f465-1f3f-11e7-bf6b-3863bb334450,15,40,False,331,-77.060866,classic,False,https://dc.lft.to/lastmile_qr_scan,https://dc.lft.to/lastmile_qr_scan,18:56:47
313,332,Langston Blvd & N Cleveland St,"['KEY', 'CREDITCARD']",38.894941,[],True,31079,0825f4f2-1f3f-11e7-bf6b-3863bb334450,15,41,False,332,-77.09169,classic,False,https://dc.lft.to/lastmile_qr_scan,https://dc.lft.to/lastmile_qr_scan,18:56:47
314,333,Arlington Blvd & S George Mason Dr,"['KEY', 'CREDITCARD']",38.869442,[],True,31078,0825f58d-1f3f-11e7-bf6b-3863bb334450,15,41,False,333,-77.104503,classic,False,https://dc.lft.to/lastmile_qr_scan,https://dc.lft.to/lastmile_qr_scan,18:56:47
315,334,10th & G St NW,"['KEY', 'CREDITCARD']",38.89824328774852,[],True,31274,0825f622-1f3f-11e7-bf6b-3863bb334450,23,42,False,334,-77.02623546123505,classic,False,https://dc.lft.to/lastmile_qr_scan,https://dc.lft.to/lastmile_qr_scan,18:56:47
316,335,Langston Blvd & N Scott St,"['KEY', 'CREDITCARD']",38.897612,[],True,31080,0825f6b3-1f3f-11e7-bf6b-3863bb334450,15,41,False,335,-77.080851,classic,False,https://dc.lft.to/lastmile_qr_scan,https://dc.lft.to/lastmile_qr_scan,18:56:47
317,336,New Hampshire Ave & 24th St NW,"['KEY', 'CREDITCARD']",38.901755,[],True,31275,0825f723-1f3f-11e7-bf6b-3863bb334450,19,42,False,336,-77.051084,classic,False,https://dc.lft.to/lastmile_qr_scan,https://dc.lft.to/lastmile_qr_scan,18:56:47
318,337,Eisenhower Ave & Mill Race Ln,"['KEY', 'CREDITCARD']",38.801111,[],True,31082,0825f794-1f3f-11e7-bf6b-3863bb334450,15,40,False,337,-77.068952,classic,False,https://dc.lft.to/lastmile_qr_scan,https://dc.lft.to/lastmile_qr_scan,18:56:47
319,338,Potomac Greens Dr & Slaters Ln,"['KEY', 'CREDITCARD']",38.82175,[],True,31083,0825f807-1f3f-11e7-bf6b-3863bb334450,11,40,False,338,-77.047494,classic,False,https://dc.lft.to/lastmile_qr_scan,https://dc.lft.to/lastmile_qr_scan,18:56:47
320,339,Ballenger Ave & Dulaney St,"['KEY', 'CREDITCARD']",38.802677,[],True,31084,0825f872-1f3f-11e7-bf6b-3863bb334450,19,40,False,339,-77.063562,classic,False,https://dc.lft.to/lastmile_qr_scan,https://dc.lft.to/lastmile_qr_scan,18:56:47
321,340,Mount Vernon Ave & E Nelson Ave,"['KEY', 'CREDITCARD']",38.820064,[],True,31085,0825f8da-1f3f-11e7-bf6b-3863bb334450,11,40,False,340,-77.057619,classic,False,https://dc.lft.to/lastmile_qr_scan,https://dc.lft.to/lastmile_qr_scan,18:56:47
322,341,Mount Vernon Ave & E Del Ray Ave,"['KEY', 'CREDITCARD']",38.82595,[],True,31086,0825f946-1f3f-11e7-bf6b-3863bb334450,15,40,False,341,-77.058541,classic,False,https://dc.lft.to/lastmile_qr_scan,https://dc.lft.to/lastmile_qr_scan,18:56:47
323,342,Monroe Ave & Leslie Ave,"['KEY', 'CREDITCARD']",38.820932,[],True,31087,0825f9b6-1f3f-11e7-bf6b-3863bb334450,15,40,False,342,-77.053096,classic,False,https://dc.lft.to/lastmile_qr_scan,https://dc.lft.to/lastmile_qr_scan,18:56:47
324,343,Mount Vernon Ave & Kennedy St,"['KEY', 'CREDITCARD']",38.833077,[],True,31088,0825fa22-1f3f-11e7-bf6b-3863bb334450,15,40,False,343,-77.059821,classic,False,https://dc.lft.to/lastmile_qr_scan,https://dc.lft.to/lastmile_qr_scan,18:56:47
325,344,Court House Metro / 15th St & N Uhle St,"['KEY', 'CREDITCARD']",38.890612,[],True,31089,0825fa8b-1f3f-11e7-bf6b-3863bb334450,21,41,False,344,-77.084801,classic,False,https://dc.lft.to/lastmile_qr_scan,https://dc.lft.to/lastmile_qr_scan,18:56:47
326,345,WAU / Flower Ave & Division St,"['KEY', 'CREDITCARD']",38.986743,[],True,32049,0825faf6-1f3f-11e7-bf6b-3863bb334450,15,44,False,345,-77.000035,classic,False,https://dc.lft.to/lastmile_qr_scan,https://dc.lft.to/lastmile_qr_scan,18:56:47
327,346,Long Bridge Park / Long Bridge Dr & 6th St S,"['KEY', 'CREDITCARD']",38.865553,[],True,31090,0825fb66-1f3f-11e7-bf6b-3863bb334450,15,41,False,346,-77.05003,classic,False,https://dc.lft.to/lastmile_qr_scan,https://dc.lft.to/lastmile_qr_scan,18:56:47
328,347,Connecticut Ave & McKinley St NW,"['KEY', 'CREDITCARD']",38.96454350924588,[],True,31315,0825fbd3-1f3f-11e7-bf6b-3863bb334450,19,42,False,347,-77.07513481378555,classic,False,https://dc.lft.to/lastmile_qr_scan,https://dc.lft.to/lastmile_qr_scan,18:56:47
329,348,15th & L St NW,"['KEY', 'CREDITCARD']",38.903649,[],True,31276,0825fc3a-1f3f-11e7-bf6b-3863bb334450,23,42,False,348,-77.034918,classic,False,https://dc.lft.to/lastmile_qr_scan,https://dc.lft.to/lastmile_qr_scan,18:56:47
330,349,17th & G St NW,"['KEY', 'CREDITCARD']",38.898282949523605,[],True,31277,0825fca2-1f3f-11e7-bf6b-3863bb334450,31,42,False,349,-77.03973233699799,classic,False,https://dc.lft.to/lastmile_qr_scan,https://dc.lft.to/lastmile_qr_scan,18:56:47
331,350,Spring St & 2nd Ave,"['KEY', 'CREDITCARD']",38.997653,[],True,32050,0825fd09-1f3f-11e7-bf6b-3863bb334450,15,44,False,350,-77.034499,classic,False,https://dc.lft.to/lastmile_qr_scan,https://dc.lft.to/lastmile_qr_scan,18:56:47
332,351,18th & R St NW,"['KEY', 'CREDITCARD']",38.912648,[],True,31278,0825fd75-1f3f-11e7-bf6b-3863bb334450,19,42,False,351,-77.041834,classic,False,https://dc.lft.to/lastmile_qr_scan,https://dc.lft.to/lastmile_qr_scan,18:56:47
333,352,Joyce St & 16th St S,"['KEY', 'CREDITCARD']",38.859254,[],True,31091,0825fddc-1f3f-11e7-bf6b-3863bb334450,15,41,False,352,-77.063275,classic,False,https://dc.lft.to/lastmile_qr_scan,https://dc.lft.to/lastmile_qr_scan,18:56:47
334,353,Union Market,"['KEY', 'CREDITCARD']",38.907908,[],True,31517,0825fe4c-1f3f-11e7-bf6b-3863bb334450,23,42,False,353,-76.99707,classic,False,https://dc.lft.to/lastmile_qr_scan,https://dc.lft.to/lastmile_qr_scan,18:56:47
335,354,Langston Blvd & N Monroe St,"['KEY', 'CREDITCARD']",38.896456,[],True,31092,0825feb6-1f3f-11e7-bf6b-3863bb334450,15,41,False,354,-77.104562,classic,False,https://dc.lft.to/lastmile_qr_scan,https://dc.lft.to/lastmile_qr_scan,18:56:47
336,355,21st St & N Pierce St,"['KEY', 'CREDITCARD']",38.898984,[],True,31093,0825ff20-1f3f-11e7-bf6b-3863bb334450,15,41,False,355,-77.078317,classic,False,https://dc.lft.to/lastmile_qr_scan,https://dc.lft.to/lastmile_qr_scan,18:56:47
337,356,Langston Blvd & N Kirkwood St,"['KEY', 'CREDITCARD']",38.895377,[],True,31094,0825ff8d-1f3f-11e7-bf6b-3863bb334450,15,41,False,356,-77.09713,classic,False,https://dc.lft.to/lastmile_qr_scan,https://dc.lft.to/lastmile_qr_scan,18:56:47
338,357,19th & G St NW,"['KEY', 'CREDITCARD']",38.898412,[],True,31279,0825fff6-1f3f-11e7-bf6b-3863bb334450,23,42,False,357,-77.043182,classic,False,https://dc.lft.to/lastmile_qr_scan,https://dc.lft.to/lastmile_qr_scan,18:56:47
339,358,2nd St & Seaton Pl NE,"['KEY', 'CREDITCARD']",38.914751108831155,[],True,31522,0826005e-1f3f-11e7-bf6b-3863bb334450,19,42,False,358,-77.00356006622314,classic,False,https://dc.lft.to/lastmile_qr_scan,https://dc.lft.to/lastmile_qr_scan,18:56:47
340,359,Wilson Blvd & N Illinois St ,"['KEY', 'CREDITCARD']",38.876528,[],True,31902,082600d8-1f3f-11e7-bf6b-3863bb334450,15,41,False,359,-77.12712,classic,False,https://dc.lft.to/lastmile_qr_scan,https://dc.lft.to/lastmile_qr_scan,18:56:47
341,364,Army Navy Dr & S Nash St,"['KEY', 'CREDITCARD']",38.86215024521491,[],True,31095,0826029e-1f3f-11e7-bf6b-3863bb334450,11,41,False,364,-77.06812083721161,classic,False,https://dc.lft.to/lastmile_qr_scan,https://dc.lft.to/lastmile_qr_scan,18:56:47
342,365,Thomas Jefferson St NW & Water/K St NW,"['KEY', 'CREDITCARD']",38.902826,[],True,31293,0826030a-1f3f-11e7-bf6b-3863bb334450,19,42,False,365,-77.060173,classic,False,https://dc.lft.to/lastmile_qr_scan,https://dc.lft.to/lastmile_qr_scan,18:56:47
343,367,11th & S St NW,"['KEY', 'CREDITCARD']",38.913761,[],True,31280,082603fc-1f3f-11e7-bf6b-3863bb334450,23,42,False,367,-77.027025,classic,False,https://dc.lft.to/lastmile_qr_scan,https://dc.lft.to/lastmile_qr_scan,18:56:47
344,368,Walter Reed Dr & 8th St S,"['KEY', 'CREDITCARD']",38.86612,[],True,31096,08260472-1f3f-11e7-bf6b-3863bb334450,15,41,False,368,-77.08787,classic,False,https://dc.lft.to/lastmile_qr_scan,https://dc.lft.to/lastmile_qr_scan,18:56:47
345,369,2nd & G St NE,"['KEY', 'CREDITCARD']",38.89967,[],True,31639,082604dd-1f3f-11e7-bf6b-3863bb334450,23,42,False,369,-77.003666,classic,False,https://dc.lft.to/lastmile_qr_scan,https://dc.lft.to/lastmile_qr_scan,18:56:47
346,370,8th & O St NW,"['KEY', 'CREDITCARD']",38.90864,[],True,31281,08260549-1f3f-11e7-bf6b-3863bb334450,19,42,False,370,-77.02277,classic,False,https://dc.lft.to/lastmile_qr_scan,https://dc.lft.to/lastmile_qr_scan,18:56:47
347,371,Georgia & Missouri Ave NW,"['KEY', 'CREDITCARD']",38.961339,[],True,31411,082605b0-1f3f-11e7-bf6b-3863bb334450,19,42,False,371,-77.027855,classic,False,https://dc.lft.to/lastmile_qr_scan,https://dc.lft.to/lastmile_qr_scan,18:56:47
348,373,Oklahoma Ave & D St NE,"['KEY', 'CREDITCARD']",38.894474,[],True,31712,08261245-1f3f-11e7-bf6b-3863bb334450,19,42,False,373,-76.974828,classic,False,https://dc.lft.to/lastmile_qr_scan,https://dc.lft.to/lastmile_qr_scan,18:56:47
349,374,Maryland Ave & E St NE,"['KEY', 'CREDITCARD']",38.8962260397813,[],True,31640,082612c1-1f3f-11e7-bf6b-3863bb334450,19,42,False,374,-76.99278563261032,classic,False,https://dc.lft.to/lastmile_qr_scan,https://dc.lft.to/lastmile_qr_scan,18:56:47
350,375,New York Ave & Hecht Ave NE,"['KEY', 'CREDITCARD']",38.915604,[],True,31518,0826132d-1f3f-11e7-bf6b-3863bb334450,23,42,False,375,-76.983683,classic,False,https://dc.lft.to/lastmile_qr_scan,https://dc.lft.to/lastmile_qr_scan,18:56:47
351,376,Yuma St & Tenley Circle NW,"['KEY', 'CREDITCARD']",38.946182,[],True,31316,0826139b-1f3f-11e7-bf6b-3863bb334450,19,42,False,376,-77.08059,classic,False,https://dc.lft.to/lastmile_qr_scan,https://dc.lft.to/lastmile_qr_scan,18:56:47
352,377,Connecticut Ave & Chevy Chase Lake Dr,"['KEY', 'CREDITCARD']",38.994113,[],True,32051,08261407-1f3f-11e7-bf6b-3863bb334450,15,44,False,377,-77.076986,classic,False,https://dc.lft.to/lastmile_qr_scan,https://dc.lft.to/lastmile_qr_scan,18:56:47
353,378,Key West Ave & Siesta Key Way,"['KEY', 'CREDITCARD']",39.105295,[],True,32052,08261479-1f3f-11e7-bf6b-3863bb334450,15,43,False,378,-77.194774,classic,False,https://dc.lft.to/lastmile_qr_scan,https://dc.lft.to/lastmile_qr_scan,18:56:47
354,379,Langston Blvd & N Woodstock St,"['KEY', 'CREDITCARD']",38.898301,[],True,31900,082614e4-1f3f-11e7-bf6b-3863bb334450,19,41,False,379,-77.118009,classic,False,https://dc.lft.to/lastmile_qr_scan,https://dc.lft.to/lastmile_qr_scan,18:56:47
355,380,Saint Asaph St & Madison St,"['KEY', 'CREDITCARD']",38.812718,[],True,31097,0826154d-1f3f-11e7-bf6b-3863bb334450,15,40,False,380,-77.044097,classic,False,https://dc.lft.to/lastmile_qr_scan,https://dc.lft.to/lastmile_qr_scan,18:56:47
356,381,King St Metro North / Cameron St,"['KEY', 'CREDITCARD']",38.80704,[],True,31098,082615b7-1f3f-11e7-bf6b-3863bb334450,15,40,False,381,-77.059817,classic,False,https://dc.lft.to/lastmile_qr_scan,https://dc.lft.to/lastmile_qr_scan,18:56:47
357,382,Madison St & N Henry St,"['KEY', 'CREDITCARD']",38.813485,[],True,31099,08261620-1f3f-11e7-bf6b-3863bb334450,15,40,False,382,-77.049468,classic,False,https://dc.lft.to/lastmile_qr_scan,https://dc.lft.to/lastmile_qr_scan,18:56:47
358,383,Medical Center Metro ,"['KEY', 'CREDITCARD']",38.999378,[],True,32053,0826168f-1f3f-11e7-bf6b-3863bb334450,19,44,False,383,-77.097882,classic,False,https://dc.lft.to/lastmile_qr_scan,https://dc.lft.to/lastmile_qr_scan,18:56:47
359,384,Washington Blvd & N Frederick St,"['KEY', 'CREDITCARD']",38.884829,[],True,31901,082616fc-1f3f-11e7-bf6b-3863bb334450,11,41,False,384,-77.127671,classic,False,https://dc.lft.to/lastmile_qr_scan,https://dc.lft.to/lastmile_qr_scan,18:56:47
360,385,Wisconsin Ave & Ingomar St NW,"['KEY', 'CREDITCARD']",38.958267,[],True,31317,0826176a-1f3f-11e7-bf6b-3863bb334450,19,42,False,385,-77.084636,classic,False,https://dc.lft.to/lastmile_qr_scan,https://dc.lft.to/lastmile_qr_scan,18:56:47
361,386,16th & Irving St NW,"['KEY', 'CREDITCARD']",38.928893,[],True,31122,082617d2-1f3f-11e7-bf6b-3863bb334450,19,42,False,386,-77.03625,classic,False,https://dc.lft.to/lastmile_qr_scan,https://dc.lft.to/lastmile_qr_scan,18:56:47
362,387,16th & R St NW,"['KEY', 'CREDITCARD']",38.912652,[],True,31282,0826183f-1f3f-11e7-bf6b-3863bb334450,19,42,False,387,-77.036278,classic,False,https://dc.lft.to/lastmile_qr_scan,https://dc.lft.to/lastmile_qr_scan,18:56:47
363,388,Lyttonsville Rd & Lyttonsville Pl,"['KEY', 'CREDITCARD']",38.999679,[],True,32054,082618a7-1f3f-11e7-bf6b-3863bb334450,15,44,False,388,-77.051168,classic,False,https://dc.lft.to/lastmile_qr_scan,https://dc.lft.to/lastmile_qr_scan,18:56:47
364,389,Woodmont Ave & Strathmore St,"['KEY', 'CREDITCARD']",38.979875,[],True,32055,0826190f-1f3f-11e7-bf6b-3863bb334450,11,44,False,389,-77.093522,classic,False,https://dc.lft.to/lastmile_qr_scan,https://dc.lft.to/lastmile_qr_scan,18:56:47
365,390,14th & L St NW,"['KEY', 'CREDITCARD']",38.903658,[],True,31283,08261977-1f3f-11e7-bf6b-3863bb334450,19,42,False,390,-77.031737,classic,False,https://dc.lft.to/lastmile_qr_scan,https://dc.lft.to/lastmile_qr_scan,18:56:47
366,391,1st & O St NW,"['KEY', 'CREDITCARD']",38.908643,[],True,31519,082619e1-1f3f-11e7-bf6b-3863bb334450,15,42,False,391,-77.012365,classic,False,https://dc.lft.to/lastmile_qr_scan,https://dc.lft.to/lastmile_qr_scan,18:56:47
367,392,South Capitol & Atlantic St SW,"['KEY', 'CREDITCARD']",38.831516,[],True,31811,08261a52-1f3f-11e7-bf6b-3863bb334450,19,42,False,392,-77.008133,classic,False,https://dc.lft.to/lastmile_qr_scan,https://dc.lft.to/lastmile_qr_scan,18:56:47
368,393,18th & C St NW,"['KEY', 'CREDITCARD']",38.893511,[],True,31284,08261aba-1f3f-11e7-bf6b-3863bb334450,19,42,False,393,-77.041544,classic,False,https://dc.lft.to/lastmile_qr_scan,https://dc.lft.to/lastmile_qr_scan,18:56:47
369,394,22nd & P ST NW,"['KEY', 'CREDITCARD']",38.909394,[],True,31285,08261b21-1f3f-11e7-bf6b-3863bb334450,19,42,False,394,-77.048728,classic,False,https://dc.lft.to/lastmile_qr_scan,https://dc.lft.to/lastmile_qr_scan,18:56:47
370,395,East West Hwy & 16th St,"['KEY', 'CREDITCARD']",38.995681,[],True,32056,08261b89-1f3f-11e7-bf6b-3863bb334450,19,44,False,395,-77.038721,classic,False,https://dc.lft.to/lastmile_qr_scan,https://dc.lft.to/lastmile_qr_scan,18:56:47
371,396,Royal St & Wilkes St,"['KEY', 'CREDITCARD']",38.799267,[],True,31903,08261bf4-1f3f-11e7-bf6b-3863bb334450,15,40,False,396,-77.0447,classic,False,https://dc.lft.to/lastmile_qr_scan,https://dc.lft.to/lastmile_qr_scan,18:56:47
372,397,14th & Girard St NW,"['KEY', 'CREDITCARD']",38.925284,[],True,31123,08261c65-1f3f-11e7-bf6b-3863bb334450,23,42,False,397,-77.032375,classic,False,https://dc.lft.to/lastmile_qr_scan,https://dc.lft.to/lastmile_qr_scan,18:56:47
373,398,Potomac Ave & Main Line Blvd,"['KEY', 'CREDITCARD']",38.822738,[],True,31910,08261ccf-1f3f-11e7-bf6b-3863bb334450,19,40,False,398,-77.049265,classic,False,https://dc.lft.to/lastmile_qr_scan,https://dc.lft.to/lastmile_qr_scan,18:56:47
374,399,11th & O St NW,"['KEY', 'CREDITCARD']",38.90843,[],True,31286,08261d35-1f3f-11e7-bf6b-3863bb334450,19,42,False,399,-77.02714,classic,False,https://dc.lft.to/lastmile_qr_scan,https://dc.lft.to/lastmile_qr_scan,18:56:47
375,400,10th St & L'Enfant Plaza SW,"['KEY', 'CREDITCARD']",38.88432272414662,[],True,31287,08261d9d-1f3f-11e7-bf6b-3863bb334450,23,42,False,400,-77.02601015567778,classic,False,https://dc.lft.to/lastmile_qr_scan,https://dc.lft.to/lastmile_qr_scan,18:56:47
376,401,Connecticut Ave & Yuma St NW,"['KEY', 'CREDITCARD']",38.947156,[],True,31318,08261e06-1f3f-11e7-bf6b-3863bb334450,19,42,False,401,-77.065115,classic,False,https://dc.lft.to/lastmile_qr_scan,https://dc.lft.to/lastmile_qr_scan,18:56:47
377,402,2nd St & Massachusetts Ave NE,"['KEY', 'CREDITCARD']",38.894972,[],True,31641,08261e7a-1f3f-11e7-bf6b-3863bb334450,23,42,False,402,-77.003135,classic,False,https://dc.lft.to/lastmile_qr_scan,https://dc.lft.to/lastmile_qr_scan,18:56:47
378,403,Radford St & Osage St,"['KEY', 'CREDITCARD']",38.828437,[],True,31908,08261ee4-1f3f-11e7-bf6b-3863bb334450,23,40,False,403,-77.086031,classic,False,https://dc.lft.to/lastmile_qr_scan,https://dc.lft.to/lastmile_qr_scan,18:56:47
379,404,East Falls Church Metro / Sycamore St & 19th St N,"['KEY', 'CREDITCARD']",38.88532071975074,[],True,31904,08261f4b-1f3f-11e7-bf6b-3863bb334450,19,41,False,404,-77.15642720460892,classic,False,https://dc.lft.to/lastmile_qr_scan,https://dc.lft.to/lastmile_qr_scan,18:56:47
380,405,Kennebec St & 11th St N,"['KEY', 'CREDITCARD']",38.880992,[],True,31905,08261fb3-1f3f-11e7-bf6b-3863bb334450,15,41,False,405,-77.135271,classic,False,https://dc.lft.to/lastmile_qr_scan,https://dc.lft.to/lastmile_qr_scan,18:56:47
381,406,Commonwealth Ave & Oak St,"['KEY', 'CREDITCARD']",38.812711,[],True,31906,08262027-1f3f-11e7-bf6b-3863bb334450,15,40,False,406,-77.061715,classic,False,https://dc.lft.to/lastmile_qr_scan,https://dc.lft.to/lastmile_qr_scan,18:56:47
382,407,Commonwealth Ave & E Monroe Ave,"['KEY', 'CREDITCARD']",38.82005823354218,[],True,31913,08262094-1f3f-11e7-bf6b-3863bb334450,15,40,False,407,-77.06282079219818,classic,False,https://dc.lft.to/lastmile_qr_scan,https://dc.lft.to/lastmile_qr_scan,18:56:47
383,408,4th St & Madison Dr NW,"['KEY', 'CREDITCARD']",38.8904955,[],True,31288,082620fc-1f3f-11e7-bf6b-3863bb334450,31,42,False,408,-77.0172465,classic,False,https://dc.lft.to/lastmile_qr_scan,https://dc.lft.to/lastmile_qr_scan,18:56:47
384,409,Henry Bacon Dr & Lincoln Memorial Circle NW,"['KEY', 'CREDITCARD']",38.890539,[],True,31289,0826233f-1f3f-11e7-bf6b-3863bb334450,19,42,False,409,-77.049383,classic,False,https://dc.lft.to/lastmile_qr_scan,https://dc.lft.to/lastmile_qr_scan,18:56:47
385,410,17th St & Independence Ave SW,"['KEY', 'CREDITCARD']",38.888097,[],True,31290,082623bf-1f3f-11e7-bf6b-3863bb334450,19,42,False,410,-77.038325,classic,False,https://dc.lft.to/lastmile_qr_scan,https://dc.lft.to/lastmile_qr_scan,18:56:47
386,411,Franklin St & S Washington St,"['KEY', 'CREDITCARD']",38.798133,[],True,31907,0826242b-1f3f-11e7-bf6b-3863bb334450,19,40,False,411,-77.0487,classic,False,https://dc.lft.to/lastmile_qr_scan,https://dc.lft.to/lastmile_qr_scan,18:56:47
387,412,Mount Vernon Ave & Four Mile Run Park,"['KEY', 'CREDITCARD']",38.843422,[],True,31909,08262494-1f3f-11e7-bf6b-3863bb334450,15,40,False,412,-77.064016,classic,False,https://dc.lft.to/lastmile_qr_scan,https://dc.lft.to/lastmile_qr_scan,18:56:47
388,413,New Jersey Ave & K St NW,"['KEY', 'CREDITCARD']",38.90240556584194,[],True,31642,082624fc-1f3f-11e7-bf6b-3863bb334450,23,42,False,413,-77.01600551605225,classic,False,https://dc.lft.to/lastmile_qr_scan,https://dc.lft.to/lastmile_qr_scan,18:56:47
389,414,Mount Vernon Ave & Bruce St,"['KEY', 'CREDITCARD']",38.841291,[],True,31912,0826256c-1f3f-11e7-bf6b-3863bb334450,15,40,False,414,-77.063093,classic,False,https://dc.lft.to/lastmile_qr_scan,https://dc.lft.to/lastmile_qr_scan,18:56:47
390,415,Lee Center,"['KEY', 'CREDITCARD']",38.797557,[],True,31914,082625d9-1f3f-11e7-bf6b-3863bb334450,15,40,False,415,-77.053766,classic,False,https://dc.lft.to/lastmile_qr_scan,https://dc.lft.to/lastmile_qr_scan,18:56:47
391,416,Powhatan St & Bashford Ln,"['KEY', 'CREDITCARD']",38.818748,[],True,31915,082630e2-1f3f-11e7-bf6b-3863bb334450,15,40,False,416,-77.047783,classic,False,https://dc.lft.to/lastmile_qr_scan,https://dc.lft.to/lastmile_qr_scan,18:56:47
392,417,Potomac Ave & Swann Ave,"['KEY', 'CREDITCARD']",38.829545,[],True,31916,0826315d-1f3f-11e7-bf6b-3863bb334450,19,40,False,417,-77.047844,classic,False,https://dc.lft.to/lastmile_qr_scan,https://dc.lft.to/lastmile_qr_scan,18:56:47
393,418,14th & Irving St NW,"['KEY', 'CREDITCARD']",38.928552,[],True,31124,082631cd-1f3f-11e7-bf6b-3863bb334450,31,42,False,418,-77.032224,classic,False,https://dc.lft.to/lastmile_qr_scan,https://dc.lft.to/lastmile_qr_scan,18:56:47
394,419,Vermont Ave & I St NW,"['KEY', 'CREDITCARD']",38.901136451737045,[],True,31291,08263241-1f3f-11e7-bf6b-3863bb334450,25,42,False,419,-77.03445106744766,classic,False,https://dc.lft.to/lastmile_qr_scan,https://dc.lft.to/lastmile_qr_scan,18:56:47
395,420,Wisconsin Ave & Brandywine St NW,"['KEY', 'CREDITCARD']",38.949813,[],True,31319,082632a8-1f3f-11e7-bf6b-3863bb334450,25,42,False,420,-77.080217,classic,False,https://dc.lft.to/lastmile_qr_scan,https://dc.lft.to/lastmile_qr_scan,18:56:47
396,421,24th & R St NE / National Arboretum,"['KEY', 'CREDITCARD']",38.91263,[],True,31520,08263311-1f3f-11e7-bf6b-3863bb334450,19,42,False,421,-76.971923,classic,False,https://dc.lft.to/lastmile_qr_scan,https://dc.lft.to/lastmile_qr_scan,18:56:47
397,422,Division Ave & Foote St NE,"['KEY', 'CREDITCARD']",38.897407,[],True,31713,0826337e-1f3f-11e7-bf6b-3863bb334450,15,42,False,422,-76.925907,classic,False,https://dc.lft.to/lastmile_qr_scan,https://dc.lft.to/lastmile_qr_scan,18:56:47
398,423,16th & Q St SE / Anacostia HS,"['KEY', 'CREDITCARD']",38.870695,[],True,31812,082633ec-1f3f-11e7-bf6b-3863bb334450,23,42,False,423,-76.982359,classic,False,https://dc.lft.to/lastmile_qr_scan,https://dc.lft.to/lastmile_qr_scan,18:56:47
399,424,Spring Hill Metro,"['KEY', 'CREDITCARD']",38.929261,[],True,32200,0826345e-1f3f-11e7-bf6b-3863bb334450,15,104,False,424,-77.240654,classic,False,https://dc.lft.to/lastmile_qr_scan,https://dc.lft.to/lastmile_qr_scan,18:56:47
400,425,Westpark Dr & Leesburg Pike,"['KEY', 'CREDITCARD']",38.92403,[],True,32201,082634c6-1f3f-11e7-bf6b-3863bb334450,11,104,False,425,-77.235955,classic,False,https://dc.lft.to/lastmile_qr_scan,https://dc.lft.to/lastmile_qr_scan,18:56:47
401,427,Tysons One Pl & Chain Bridge Rd,"['KEY', 'CREDITCARD']",38.919475,[],True,32203,0826359a-1f3f-11e7-bf6b-3863bb334450,11,104,False,427,-77.221179,classic,False,https://dc.lft.to/lastmile_qr_scan,https://dc.lft.to/lastmile_qr_scan,18:56:47
402,428,Tysons Corner Station,"['KEY', 'CREDITCARD']",38.920939,[],True,32204,08263601-1f3f-11e7-bf6b-3863bb334450,11,104,False,428,-77.222115,classic,False,https://dc.lft.to/lastmile_qr_scan,https://dc.lft.to/lastmile_qr_scan,18:56:47
403,429,Westpark & Jones Branch Dr,"['KEY', 'CREDITCARD']",38.924437,[],True,32205,0826366d-1f3f-11e7-bf6b-3863bb334450,11,104,False,429,-77.217664,classic,False,https://dc.lft.to/lastmile_qr_scan,https://dc.lft.to/lastmile_qr_scan,18:56:47
404,430,Jones Branch & Westbranch Dr,"['KEY', 'CREDITCARD']",38.931911,[],True,32206,082636d5-1f3f-11e7-bf6b-3863bb334450,13,104,False,430,-77.219261,classic,False,https://dc.lft.to/lastmile_qr_scan,https://dc.lft.to/lastmile_qr_scan,18:56:47
405,431,Westpark & Park Run Dr,"['KEY', 'CREDITCARD']",38.928919,[],True,32207,0826373c-1f3f-11e7-bf6b-3863bb334450,11,104,False,431,-77.225394,classic,False,https://dc.lft.to/lastmile_qr_scan,https://dc.lft.to/lastmile_qr_scan,18:56:47
406,432,Tysons West Transit Center,"['KEY', 'CREDITCARD']",38.932636,[],True,32208,082637a5-1f3f-11e7-bf6b-3863bb334450,11,104,False,432,-77.231825,classic,False,https://dc.lft.to/lastmile_qr_scan,https://dc.lft.to/lastmile_qr_scan,18:56:47
407,433,North Shore & Cameron Crescent Dr/Crescent Apartments,"['KEY', 'CREDITCARD']",38.970046,[],True,32209,0826380c-1f3f-11e7-bf6b-3863bb334450,11,104,False,433,-77.338686,classic,False,https://dc.lft.to/lastmile_qr_scan,https://dc.lft.to/lastmile_qr_scan,18:56:47
408,434,Town Center Pkwy & Bowman Towne Dr,"['KEY', 'CREDITCARD']",38.962524,[],True,32210,08263885-1f3f-11e7-bf6b-3863bb334450,15,104,False,434,-77.361902,classic,False,https://dc.lft.to/lastmile_qr_scan,https://dc.lft.to/lastmile_qr_scan,18:56:47
409,435,Reston Regional Library,"['KEY', 'CREDITCARD']",38.962095,[],True,32211,082638f2-1f3f-11e7-bf6b-3863bb334450,15,104,False,435,-77.358815,classic,False,https://dc.lft.to/lastmile_qr_scan,https://dc.lft.to/lastmile_qr_scan,18:56:47
410,436,New Dominion Pkwy & Fountain Dr,"['KEY', 'CREDITCARD']",38.960574,[],True,32212,08263959-1f3f-11e7-bf6b-3863bb334450,15,104,False,436,-77.356324,classic,False,https://dc.lft.to/lastmile_qr_scan,https://dc.lft.to/lastmile_qr_scan,18:56:47
411,437,Sunset Hills & Old Reston Ave,"['KEY', 'CREDITCARD']",38.955079,[],True,32213,082639c8-1f3f-11e7-bf6b-3863bb334450,15,104,False,437,-77.351649,classic,False,https://dc.lft.to/lastmile_qr_scan,https://dc.lft.to/lastmile_qr_scan,18:56:47
412,438,Reston Town Center Transit Station,"['KEY', 'CREDITCARD']",38.957037,[],True,32214,08263a37-1f3f-11e7-bf6b-3863bb334450,17,104,False,438,-77.359718,classic,False,https://dc.lft.to/lastmile_qr_scan,https://dc.lft.to/lastmile_qr_scan,18:56:47
413,439,1st & D St SE,"['KEY', 'CREDITCARD']",38.884916,[],True,31643,08263aa1-1f3f-11e7-bf6b-3863bb334450,19,42,False,439,-77.005965,classic,False,https://dc.lft.to/lastmile_qr_scan,https://dc.lft.to/lastmile_qr_scan,18:56:47
414,440,Wiehle Ave & Reston Station Blvd,"['KEY', 'CREDITCARD']",38.946607921214984,[],True,32215,08263b08-1f3f-11e7-bf6b-3863bb334450,19,104,False,440,-77.3393914103508,classic,False,https://dc.lft.to/lastmile_qr_scan,https://dc.lft.to/lastmile_qr_scan,18:56:47
